,am_early,am_peak,id,latitude,longitude,midday,pm_late,pm_peak,title,total_count,type,row,col
0,2.0,16.0,R-0,32.767243,-117.0962939,13.0,3.0,12.0,c r e a m,46.0,Only Food,61.0,159.0
1,2.0,16.0,R-1,32.6979744,-117.0962499,13.0,3.0,12.0,snow cones y raspados,46.0,Only Food,54.0,159.0
2,4.0,18.0,R-2,32.7486827,-117.1269679,16.0,16.0,23.0,jalapeno taco shop,79.0,Food & Drinks,59.0,155.0
3,2.0,16.0,R-3,32.6979744,-117.0962499,13.0,3.0,12.0,tacos el campechano inc,46.0,Only Food,54.0,159.0
4,2.0,16.0,R-4,32.71837,-117.1578167,13.0,3.0,12.0,up2you cafe llc,46.0,Only Food,56.0,151.0
5,4.0,18.0,R-5,32.6770792,-117.1071669,16.0,16.0,23.0,awash ethiopian restaurant,79.0,Food & Drinks,52.0,157.0
6,2.0,16.0,R-6,32.8901366,-117.1508775,13.0,3.0,12.0,gueros taco shop,46.0,Only Food,72.0,152.0
7,4.0,18.0,R-7,32.7730688,-117.1561443,16.0,16.0,23.0,the fire spot,79.0,Food & Drinks,61.0,151.0
8,18.0,4.0,R-8,33.016118,-117.0756082,2.0,20.0,18.0,up2you cafe llc,62.0,Only Drinks,84.0,161.0
9,4.0,18.0,R-9,32.7087909,-117.1603572,16.0,16.0,23.0,cold beers & cheeseburgers,79.0,Food & Drinks,55.0,151.0
10,18.0,4.0,R-10,33.803196,-117.991337,2.0,20.0,18.0,veggilish fresh and healthy,62.0,Only Drinks,156.0,52.0
11,18.0,4.0,R-11,32.8483685,-116.9339955,2.0,20.0,18.0,2good2b llc,62.0,Only Drinks,68.0,178.0
12,4.0,18.0,R-12,32.7641442,-117.1195817,16.0,16.0,23.0,broken yolk cafe,79.0,Food & Drinks,60.0,156.0
13,4.0,18.0,R-13,33.9998099,-117.346091,16.0,16.0,23.0,saigon on fifth,79.0,Food & Drinks,174.0,129.0
14,2.0,16.0,R-14,32.7151109,-117.16777,13.0,3.0,12.0,mcdonalds,46.0,Only Food,56.0,150.0
15,2.0,16.0,R-15,32.7107619,-117.1604031,13.0,3.0,12.0,wtf waffles llc,46.0,Only Food,56.0,151.0
16,4.0,18.0,R-16,32.8140682,-117.2166034,16.0,16.0,23.0,spice & soul,79.0,Food & Drinks,65.0,144.0
17,4.0,18.0,R-17,32.6173377,-117.0270797,16.0,16.0,23.0,sushi diner 2,79.0,Food & Drinks,47.0,167.0
18,4.0,18.0,R-18,32.7280335,-117.1622569,16.0,16.0,23.0,waypoint public del sur,79.0,Food & Drinks,57.0,151.0
19,2.0,16.0,R-19,32.741777,-117.25057,13.0,3.0,12.0,san diego poke company,46.0,Only Food,58.0,140.0
20,2.0,16.0,R-20,32.8712569,-117.2097355,13.0,3.0,12.0,mary's mexican food,46.0,Only Food,70.0,145.0
21,4.0,18.0,R-21,32.7526604,-117.1969073,16.0,16.0,23.0,el patron traditional mexican grill inc,79.0,Food & Drinks,59.0,147.0
22,18.0,4.0,R-22,32.8594433,-117.2210171,2.0,20.0,18.0,a & j food service inc,62.0,Only Drinks,69.0,144.0
23,18.0,4.0,R-23,32.7835569,-117.1279637,2.0,20.0,18.0,mcdonalds 24113,62.0,Only Drinks,62.0,155.0
24,18.0,4.0,R-24,33.0132209,-117.0786021,2.0,20.0,18.0,mcdonalds 36374,62.0,Only Drinks,83.0,161.0
25,4.0,18.0,R-25,32.8011793,-117.2330946,16.0,16.0,23.0,tacul mexican cocina,79.0,Food & Drinks,64.0,142.0
26,2.0,16.0,R-26,32.7401545,-117.2111952,13.0,3.0,12.0,tango latin american flavors,46.0,Only Food,58.0,145.0
27,4.0,18.0,R-27,32.7984957,-117.2484762,16.0,16.0,23.0,rigobertos taco shop,79.0,Food & Drinks,64.0,140.0
28,4.0,18.0,R-28,32.7486284,-117.1398601,16.0,16.0,23.0,colima's mexican food at university inc,79.0,Food & Drinks,59.0,153.0
29,2.0,16.0,R-29,33.3890676,-117.2509928,13.0,3.0,12.0,fatty matty's mobile pizza & catering,46.0,Only Food,118.0,140.0
30,4.0,18.0,R-30,32.7483221,-117.2519883,16.0,16.0,23.0,ob surf lodge,79.0,Food & Drinks,59.0,140.0
31,4.0,18.0,R-31,32.7483221,-117.2519883,16.0,16.0,23.0,ob surf lodge,79.0,Food & Drinks,59.0,140.0
32,4.0,18.0,R-32,32.848207,-117.2745203,16.0,16.0,23.0,olive and basil llc,79.0,Food & Drinks,68.0,137.0
33,2.0,16.0,R-33,32.704762,-117.1296878,13.0,3.0,12.0,el paso cafe,46.0,Only Food,55.0,155.0
34,2.0,16.0,R-34,32.8799798,-117.1621159,13.0,3.0,12.0,gourmet artisan fresh food llc,46.0,Only Food,71.0,151.0
35,4.0,18.0,R-35,32.7502359,-117.1712012,16.0,16.0,23.0,panamericano hospitality llc,79.0,Food & Drinks,59.0,150.0
36,4.0,18.0,R-36,32.7374877,-117.0790474,16.0,16.0,23.0,tuk tuk one thai,79.0,Food & Drinks,58.0,161.0
37,4.0,18.0,R-37,32.7504135,-117.2133338,16.0,16.0,23.0,pho little saigon,79.0,Food & Drinks,59.0,145.0
38,18.0,4.0,R-38,32.7265532,-117.1645778,2.0,20.0,18.0,paru tea bar,62.0,Only Drinks,57.0,150.0
39,4.0,18.0,R-39,32.7485561,-117.1597461,16.0,16.0,23.0,kebena ethiopian restaurant llc,79.0,Food & Drinks,59.0,151.0
40,18.0,4.0,R-40,32.8536033,-117.2542465,2.0,20.0,18.0,coopers cafe and market place,62.0,Only Drinks,69.0,140.0
41,2.0,16.0,R-41,33.066257,-116.817703,13.0,3.0,12.0,cruz ice,46.0,Only Food,88.0,192.0
42,2.0,16.0,R-42,32.67295,-117.108912,13.0,3.0,12.0,luna's ice cream,46.0,Only Food,52.0,157.0
43,4.0,18.0,R-43,32.8223555,-117.1580887,16.0,16.0,23.0,tona entertainments inc,79.0,Food & Drinks,66.0,151.0
44,4.0,18.0,R-44,32.8223555,-117.1580887,16.0,16.0,23.0,nozaru,79.0,Food & Drinks,66.0,151.0
45,4.0,18.0,R-45,32.6985135,-117.1403722,16.0,16.0,23.0,logan inn,79.0,Food & Drinks,54.0,153.0
46,2.0,16.0,R-46,32.6760919,-117.0646958,13.0,3.0,12.0,project reo collective,46.0,Only Food,52.0,162.0
47,18.0,4.0,R-47,32.7478592,-117.1916772,2.0,20.0,18.0,seed and sprout,62.0,Only Drinks,59.0,147.0
48,4.0,18.0,R-48,32.7247484,-117.1699327,16.0,16.0,23.0,bar bodega,79.0,Food & Drinks,57.0,150.0
49,2.0,16.0,R-49,32.9451671,-117.0848387,13.0,3.0,12.0,senor taquero 2,46.0,Only Food,77.0,160.0
50,2.0,16.0,R-50,32.718299,-117.1606397,13.0,3.0,12.0,cafe dell alba,46.0,Only Food,56.0,151.0
51,4.0,18.0,R-51,32.9166193,-117.1234299,16.0,16.0,23.0,sd szechuan house inc,79.0,Food & Drinks,74.0,155.0
52,2.0,16.0,R-52,33.0176698,-117.0752944,13.0,3.0,12.0,jack in the box #69,46.0,Only Food,84.0,161.0
53,2.0,16.0,R-53,32.7335178,-117.0989721,13.0,3.0,12.0,momas ice cream,46.0,Only Food,58.0,158.0
54,2.0,16.0,R-54,32.59347,-117.0533094,13.0,3.0,12.0,taco tuesday,46.0,Only Food,45.0,164.0
55,2.0,16.0,R-55,32.7112918,-117.1361895,13.0,3.0,12.0,erik's deli fruits,46.0,Only Food,56.0,154.0
56,4.0,18.0,R-56,32.7710444,-117.1579787,16.0,16.0,23.0,joe's crab shack,79.0,Food & Drinks,61.0,151.0
57,2.0,16.0,R-57,32.7212121,-117.2285193,13.0,3.0,12.0,paragon deli cafe,46.0,Only Food,56.0,143.0
58,2.0,16.0,R-58,32.7791808,-117.2073005,13.0,3.0,12.0,high dive grill,46.0,Only Food,62.0,145.0
59,18.0,4.0,R-59,32.7331329,-117.2011817,2.0,20.0,18.0,pga tour grill t2,62.0,Only Drinks,58.0,146.0
60,18.0,4.0,R-60,32.7304629,-117.1917902,2.0,20.0,18.0,host scr san fb llc,62.0,Only Drinks,57.0,147.0
61,18.0,4.0,R-61,32.7304629,-117.1917902,2.0,20.0,18.0,craft brews on 30th street t1 east,62.0,Only Drinks,57.0,147.0
62,2.0,16.0,R-62,32.9779799,-117.0842348,13.0,3.0,12.0,ohana cupcakes,46.0,Only Food,80.0,160.0
63,2.0,16.0,R-63,32.756416,-117.082965,13.0,3.0,12.0,unni banh mi & food to go,46.0,Only Food,60.0,160.0
64,2.0,16.0,R-64,32.7393976,-117.1244911,13.0,3.0,12.0,domenic de lucas pizza,46.0,Only Food,58.0,155.0
65,2.0,16.0,R-65,32.7993503,-117.2351128,13.0,3.0,12.0,la perla cocina mexicana #2,46.0,Only Food,64.0,142.0
66,18.0,4.0,R-66,32.8257334,-117.1609048,2.0,20.0,18.0,circle 9 brewing,62.0,Only Drinks,66.0,151.0
67,2.0,16.0,R-67,32.5817004,-117.0647117,13.0,3.0,12.0,la carreta de m rutilio zayas v,46.0,Only Food,44.0,162.0
68,2.0,16.0,R-68,32.9166777,-117.113913,13.0,3.0,12.0,sharetea,46.0,Only Food,74.0,156.0
69,18.0,4.0,R-69,32.7331329,-117.2011817,2.0,20.0,18.0,host scr san fb llc,62.0,Only Drinks,58.0,146.0
70,2.0,16.0,R-70,32.7974211,-117.2509077,13.0,3.0,12.0,steak n fries,46.0,Only Food,63.0,140.0
71,2.0,16.0,R-71,32.8146899,-117.154474,13.0,3.0,12.0,freeze san diego,46.0,Only Food,65.0,152.0
72,2.0,16.0,R-72,32.7943661,-117.1936698,13.0,3.0,12.0,starbucks coffee#50383,46.0,Only Food,63.0,147.0
73,2.0,16.0,R-73,32.7102367,-117.1601166,13.0,3.0,12.0,the food shop,46.0,Only Food,55.0,151.0
74,2.0,16.0,R-74,32.7495491,-117.0889048,13.0,3.0,12.0,cafe gai dep,46.0,Only Food,59.0,159.0
75,4.0,18.0,R-75,32.8185909,-117.1501802,16.0,16.0,23.0,marion crepe,79.0,Food & Drinks,65.0,152.0
76,4.0,18.0,R-76,32.8185909,-117.1501802,16.0,16.0,23.0,musashiya,79.0,Food & Drinks,65.0,152.0
77,4.0,18.0,R-77,32.8321694,-117.164233,16.0,16.0,23.0,souplantation,79.0,Food & Drinks,67.0,150.0
78,4.0,18.0,R-78,33.0260531,-117.0752288,16.0,16.0,23.0,souplantation,79.0,Food & Drinks,84.0,161.0
79,2.0,16.0,R-79,32.7582665,-117.1404541,13.0,3.0,12.0,the go go truck,46.0,Only Food,60.0,153.0
80,2.0,16.0,R-80,32.711545,-117.1225504,13.0,3.0,12.0,la gracia,46.0,Only Food,56.0,155.0
81,4.0,18.0,R-81,32.9492369,-117.2463089,16.0,16.0,23.0,jack in the box,79.0,Food & Drinks,77.0,141.0
82,2.0,16.0,R-82,32.6993055,-117.1285033,13.0,3.0,12.0,el patron mexican food,46.0,Only Food,54.0,155.0
83,2.0,16.0,R-83,32.7499186,-117.1164467,13.0,3.0,12.0,r g d & associates inc,46.0,Only Food,59.0,156.0
84,4.0,18.0,R-84,32.9369207,-117.101018,16.0,16.0,23.0,jack in the box,79.0,Food & Drinks,76.0,158.0
85,4.0,18.0,R-85,32.9585104,-117.1265121,16.0,16.0,23.0,jack in the box,79.0,Food & Drinks,78.0,155.0
86,4.0,18.0,R-86,32.7486256,-117.1572033,16.0,16.0,23.0,jack in the box,79.0,Food & Drinks,59.0,151.0
87,4.0,18.0,R-87,32.7499233,-117.2436122,16.0,16.0,23.0,jack in the box,79.0,Food & Drinks,59.0,141.0
88,4.0,18.0,R-88,32.7959117,-117.2510279,16.0,16.0,23.0,sandbox,79.0,Food & Drinks,63.0,140.0
89,2.0,16.0,R-89,32.892957,-117.242694,13.0,3.0,12.0,torrey club cafe,46.0,Only Food,72.0,141.0
90,18.0,4.0,R-90,32.8255416,-117.1543697,2.0,20.0,18.0,steamy piggy,62.0,Only Drinks,66.0,152.0
91,2.0,16.0,R-91,32.7182806,-117.0735574,13.0,3.0,12.0,tackle my taco,46.0,Only Food,56.0,161.0
92,4.0,18.0,R-92,32.8022911,-117.1398075,16.0,16.0,23.0,little sams pizza,79.0,Food & Drinks,64.0,153.0
93,4.0,18.0,R-93,32.8464767,-117.2740395,16.0,16.0,23.0,le petit bistrot la jolla,79.0,Food & Drinks,68.0,137.0
94,2.0,16.0,R-94,32.74931,-117.071555,13.0,3.0,12.0,taqueria al gusto,46.0,Only Food,59.0,161.0
95,2.0,16.0,R-95,33.1394049,-117.199248,13.0,3.0,12.0,the rush coffee llc,46.0,Only Food,95.0,146.0
96,4.0,18.0,R-96,32.8846046,-117.1525534,16.0,16.0,23.0,malted diner,79.0,Food & Drinks,71.0,152.0
97,4.0,18.0,R-97,32.9380451,-117.2312611,16.0,16.0,23.0,souplantation,79.0,Food & Drinks,76.0,142.0
98,18.0,4.0,R-98,33.7555615,-118.1347869,2.0,20.0,18.0,babys burgers,62.0,Only Drinks,151.0,34.0
99,4.0,18.0,R-99,32.7106681,-117.1651269,16.0,16.0,23.0,bean sprouts,79.0,Food & Drinks,56.0,150.0
100,4.0,18.0,R-100,32.7552439,-117.2223152,16.0,16.0,23.0,souplantation,79.0,Food & Drinks,60.0,143.0
101,4.0,18.0,R-101,32.7867799,-117.0974648,16.0,16.0,23.0,souplantation,79.0,Food & Drinks,62.0,158.0
102,4.0,18.0,R-102,32.737944,-117.2119253,16.0,16.0,23.0,slaters 50 50,79.0,Food & Drinks,58.0,145.0
103,2.0,16.0,R-103,32.7400523,-117.0973158,13.0,3.0,12.0,mariscos los compadres,46.0,Only Food,58.0,158.0
104,2.0,16.0,R-104,32.7524178,-117.1954936,13.0,3.0,12.0,old town yogurt cafe,46.0,Only Food,59.0,147.0
105,2.0,16.0,R-105,32.7509427,-117.2057777,13.0,3.0,12.0,ahipoki bowl san diego llc,46.0,Only Food,59.0,145.0
106,4.0,18.0,R-106,32.7191617,-117.1604834,16.0,16.0,23.0,ko underground brewery restaurant & bar,79.0,Food & Drinks,56.0,151.0
107,4.0,18.0,R-107,32.9146031,-117.1300494,16.0,16.0,23.0,paradise biryani pointe,79.0,Food & Drinks,74.0,154.0
108,4.0,18.0,R-108,32.8349461,-116.7536147,16.0,16.0,23.0,lucha's mexican food,79.0,Food & Drinks,67.0,199.0
109,18.0,4.0,R-109,32.7319623,-117.247722,2.0,20.0,18.0,eaton right,62.0,Only Drinks,57.0,140.0
110,4.0,18.0,R-110,32.8266692,-117.1558469,16.0,16.0,23.0,r&b crawfish lounge,79.0,Food & Drinks,66.0,151.0
111,4.0,18.0,R-111,32.7133905,-117.1608929,16.0,16.0,23.0,all american burgers,79.0,Food & Drinks,56.0,151.0
112,2.0,16.0,R-112,32.8272578,-117.1420299,13.0,3.0,12.0,champs cafe by california dining,46.0,Only Food,66.0,153.0
113,18.0,4.0,R-113,32.7106427,-117.1700038,2.0,20.0,18.0,hi poke,62.0,Only Drinks,56.0,150.0
114,18.0,4.0,R-114,32.7656864,-117.1962578,2.0,20.0,18.0,social hookah lounge,62.0,Only Drinks,61.0,147.0
115,18.0,4.0,R-115,32.7169684,-117.1544505,2.0,20.0,18.0,jack in the box,62.0,Only Drinks,56.0,152.0
116,18.0,4.0,R-116,32.7165762,-117.1398937,2.0,20.0,18.0,the underdawgs,62.0,Only Drinks,56.0,153.0
117,2.0,16.0,R-117,33.0176698,-117.0752944,13.0,3.0,12.0,restaurant leadership group llc,46.0,Only Food,84.0,161.0
118,18.0,4.0,R-118,32.740869,-117.1301349,2.0,20.0,18.0,jack in the box,62.0,Only Drinks,58.0,154.0
119,18.0,4.0,R-119,32.7556584,-117.1316988,2.0,20.0,18.0,jack in the box,62.0,Only Drinks,60.0,154.0
120,4.0,18.0,R-120,32.8302201,-117.104616,16.0,16.0,23.0,kaki japanese food & sushi,79.0,Food & Drinks,66.0,158.0
121,4.0,18.0,R-121,32.7014636,-117.1448629,16.0,16.0,23.0,rolando's taco shop iii,79.0,Food & Drinks,55.0,153.0
122,4.0,18.0,R-122,32.9451671,-117.0848387,16.0,16.0,23.0,groovy grub,79.0,Food & Drinks,77.0,160.0
123,2.0,16.0,R-123,32.7110619,-117.0948143,13.0,3.0,12.0,franks on the run,46.0,Only Food,56.0,159.0
124,4.0,18.0,R-124,32.7581385,-117.0786757,16.0,16.0,23.0,minato,79.0,Food & Drinks,60.0,161.0
125,4.0,18.0,R-125,32.7674811,-117.055021,16.0,16.0,23.0,vesuvio's pizzeria,79.0,Food & Drinks,61.0,163.0
126,2.0,16.0,R-126,32.752652,-117.1970061,13.0,3.0,12.0,java joes,46.0,Only Food,59.0,146.0
127,2.0,16.0,R-127,32.7770108,-117.1409876,13.0,3.0,12.0,loyal deli,46.0,Only Food,62.0,153.0
128,18.0,4.0,R-128,33.0197874,-117.0725839,2.0,20.0,18.0,2good2b bakery & cafe,62.0,Only Drinks,84.0,161.0
129,2.0,16.0,R-129,32.8712569,-117.2097355,13.0,3.0,12.0,bibigo,46.0,Only Food,70.0,145.0
130,2.0,16.0,R-130,32.788437,-117.237592,13.0,3.0,12.0,slices n stuffs pizzeria,46.0,Only Food,63.0,142.0
131,18.0,4.0,R-131,32.7120709,-117.1269786,2.0,20.0,18.0,nolbertos taco shop,62.0,Only Drinks,56.0,155.0
132,4.0,18.0,R-132,32.7515134,-117.245205,16.0,16.0,23.0,voltaire beach house,79.0,Food & Drinks,59.0,141.0
133,4.0,18.0,R-133,32.7150115,-117.1630975,16.0,16.0,23.0,tapas & beer llc,79.0,Food & Drinks,56.0,151.0
134,2.0,16.0,R-134,32.6931746,-117.1334153,13.0,3.0,12.0,del taco 819,46.0,Only Food,54.0,154.0
135,2.0,16.0,R-135,32.7457484,-117.2498115,13.0,3.0,12.0,cafe bella,46.0,Only Food,59.0,140.0
136,4.0,18.0,R-136,32.715972,-117.1625688,16.0,16.0,23.0,grabbagreen,79.0,Food & Drinks,56.0,151.0
137,4.0,18.0,R-137,32.744947,-117.248433,16.0,16.0,23.0,breakfast republic ocean beach,79.0,Food & Drinks,59.0,140.0
138,4.0,18.0,R-138,32.7437877,-117.2486672,16.0,16.0,23.0,hugos cocina,79.0,Food & Drinks,59.0,140.0
139,4.0,18.0,R-139,32.7496321,-117.0797272,16.0,16.0,23.0,pho 87,79.0,Food & Drinks,59.0,161.0
140,2.0,16.0,R-140,32.7496421,-117.1144299,13.0,3.0,12.0,fruteria disfrutalas,46.0,Only Food,59.0,156.0
141,2.0,16.0,R-141,32.7014738,-117.1292713,13.0,3.0,12.0,la morena mariscos,46.0,Only Food,55.0,155.0
142,4.0,18.0,R-142,32.8297207,-117.1041223,16.0,16.0,23.0,lilac thai kitchen,79.0,Food & Drinks,66.0,158.0
143,2.0,16.0,R-143,32.755586,-117.1323806,13.0,3.0,12.0,cruiser taco,46.0,Only Food,60.0,154.0
144,2.0,16.0,R-144,33.0331522,-117.0802883,13.0,3.0,12.0,starbucks coffee #47446,46.0,Only Food,85.0,160.0
145,4.0,18.0,R-145,32.7393248,-117.2149984,16.0,16.0,23.0,the lot,79.0,Food & Drinks,58.0,144.0
146,2.0,16.0,R-146,32.7206735,-117.1678762,13.0,3.0,12.0,roma market partners 2 lp,46.0,Only Food,56.0,150.0
147,2.0,16.0,R-147,32.7427911,-117.2094758,13.0,3.0,12.0,casa california food truck co,46.0,Only Food,58.0,145.0
148,4.0,18.0,R-148,32.7833246,-117.2524161,16.0,16.0,23.0,bao beach lp,79.0,Food & Drinks,62.0,140.0
149,2.0,16.0,R-149,32.8989512,-117.1800737,13.0,3.0,12.0,single fin llc,46.0,Only Food,73.0,149.0
150,2.0,16.0,R-150,32.7054926,-117.1405164,13.0,3.0,12.0,tortas de corazon guisados y grills,46.0,Only Food,55.0,153.0
151,2.0,16.0,R-151,32.7273646,-117.2272022,13.0,3.0,12.0,tony's fresh mexican food llc,46.0,Only Food,57.0,143.0
152,2.0,16.0,R-152,32.8141713,-117.1168434,13.0,3.0,12.0,northshore grinds,46.0,Only Food,65.0,156.0
153,4.0,18.0,R-153,32.7130723,-117.1603724,16.0,16.0,23.0,the hopping pig,79.0,Food & Drinks,56.0,151.0
154,2.0,16.0,R-154,32.749636,-117.1697489,13.0,3.0,12.0,tonys fresh mexican food llc,46.0,Only Food,59.0,150.0
155,4.0,18.0,R-155,32.8311487,-117.2766987,16.0,16.0,23.0,nautilus tavern,79.0,Food & Drinks,67.0,137.0
156,4.0,18.0,R-156,32.748457,-117.1614363,16.0,16.0,23.0,blue fourno grill,79.0,Food & Drinks,59.0,151.0
157,2.0,16.0,R-157,33.0060087,-117.0919108,13.0,3.0,12.0,souplantation / sweet tomatoes,46.0,Only Food,83.0,159.0
158,2.0,16.0,R-158,32.6769627,-117.0392157,13.0,3.0,12.0,pho viet express,46.0,Only Food,52.0,165.0
159,2.0,16.0,R-159,32.8223587,-117.1023205,13.0,3.0,12.0,smokin al's bbq,46.0,Only Food,66.0,158.0
160,2.0,16.0,R-160,32.7511434,-117.1720269,13.0,3.0,12.0,the patio express,46.0,Only Food,59.0,149.0
161,4.0,18.0,R-161,32.7401595,-117.2111954,16.0,16.0,23.0,wicked maine lobster,79.0,Food & Drinks,58.0,145.0
162,4.0,18.0,R-162,32.7522849,-117.2488442,16.0,16.0,23.0,surf rider pizza cafe,79.0,Food & Drinks,59.0,140.0
163,4.0,18.0,R-163,32.7174576,-117.1589918,16.0,16.0,23.0,thotsakan thai cuisine,79.0,Food & Drinks,56.0,151.0
164,4.0,18.0,R-164,32.9167016,-117.123247,16.0,16.0,23.0,tasty pot,79.0,Food & Drinks,74.0,155.0
165,4.0,18.0,R-165,32.954084,-117.2305096,16.0,16.0,23.0,grater grilled cheese highlands  llc,79.0,Food & Drinks,78.0,142.0
166,4.0,18.0,R-166,32.763169,-117.1248012,16.0,16.0,23.0,el zarape restaurant,79.0,Food & Drinks,60.0,155.0
167,2.0,16.0,R-167,32.5438314,-117.0408468,13.0,3.0,12.0,idalyas fruteria,46.0,Only Food,40.0,165.0
168,2.0,16.0,R-168,32.8693947,-117.2318343,13.0,3.0,12.0,nekter juice bar,46.0,Only Food,70.0,142.0
169,2.0,16.0,R-169,32.8130066,-117.2684949,13.0,3.0,12.0,cali streets tacos,46.0,Only Food,65.0,138.0
170,4.0,18.0,R-170,32.8322348,-117.1378269,16.0,16.0,23.0,denny's,79.0,Food & Drinks,67.0,154.0
171,4.0,18.0,R-171,32.7552077,-117.2052255,16.0,16.0,23.0,denny's,79.0,Food & Drinks,60.0,146.0
172,4.0,18.0,R-172,32.7276777,-117.2269145,16.0,16.0,23.0,denny's,79.0,Food & Drinks,57.0,143.0
173,4.0,18.0,R-173,32.7295553,-117.2416267,16.0,16.0,23.0,dennys,79.0,Food & Drinks,57.0,141.0
174,2.0,16.0,R-174,32.7532004,-117.1932378,13.0,3.0,12.0,javier's coffee snacks & drinks,46.0,Only Food,59.0,147.0
175,4.0,18.0,R-175,32.7839407,-117.2529202,16.0,16.0,23.0,saskas restaurant,79.0,Food & Drinks,62.0,140.0
176,2.0,16.0,R-176,32.7833246,-117.2524161,13.0,3.0,12.0,bao beach,46.0,Only Food,62.0,140.0
177,2.0,16.0,R-177,32.829521,-117.1525956,13.0,3.0,12.0,blush desserts,46.0,Only Food,66.0,152.0
178,2.0,16.0,R-178,32.7653211,-117.1963385,13.0,3.0,12.0,international deli & cafe,46.0,Only Food,61.0,147.0
179,2.0,16.0,R-179,32.5565113,-117.0496932,13.0,3.0,12.0,irma briseno baby,46.0,Only Food,41.0,164.0
180,2.0,16.0,R-180,32.7497411,-117.2089009,13.0,3.0,12.0,china ann,46.0,Only Food,59.0,145.0
181,4.0,18.0,R-181,32.9121748,-117.1482091,16.0,16.0,23.0,broken yolk cafe,79.0,Food & Drinks,74.0,152.0
182,2.0,16.0,R-182,32.732767,-117.169478,13.0,3.0,12.0,the bean counter,46.0,Only Food,58.0,150.0
183,2.0,16.0,R-183,33.0048168,-117.0911296,13.0,3.0,12.0,rockin burger,46.0,Only Food,82.0,159.0
184,2.0,16.0,R-184,33.493747,-117.105767,13.0,3.0,12.0,conscious coconuts,46.0,Only Food,127.0,157.0
185,4.0,18.0,R-185,32.8141393,-117.1539653,16.0,16.0,23.0,sm food management,79.0,Food & Drinks,65.0,152.0
186,2.0,16.0,R-186,32.7234106,-117.1067146,13.0,3.0,12.0,la loma bonita,46.0,Only Food,57.0,157.0
187,18.0,4.0,R-187,32.8933293,-117.2038493,2.0,20.0,18.0,wowwok,62.0,Only Drinks,72.0,146.0
188,4.0,18.0,R-188,32.8306952,-117.1277878,16.0,16.0,23.0,poki one n half,79.0,Food & Drinks,67.0,155.0
189,2.0,16.0,R-189,32.5931593,-117.0798975,13.0,3.0,12.0,tacos el jefecito,46.0,Only Food,45.0,160.0
190,4.0,18.0,R-190,32.8283377,-117.1537761,16.0,16.0,23.0,hui an garden,79.0,Food & Drinks,66.0,152.0
191,18.0,4.0,R-191,32.8205392,-117.1560108,2.0,20.0,18.0,hive,62.0,Only Drinks,66.0,151.0
192,4.0,18.0,R-192,32.7487235,-117.1541904,16.0,16.0,23.0,whistling duck tavern,79.0,Food & Drinks,59.0,152.0
193,4.0,18.0,R-193,32.7626774,-117.1341689,16.0,16.0,23.0,chi extraordinary kitchen,79.0,Food & Drinks,60.0,154.0
194,4.0,18.0,R-194,32.7571585,-117.0831755,16.0,16.0,23.0,zen coffee & deli,79.0,Food & Drinks,60.0,160.0
195,2.0,16.0,R-195,32.7151485,-117.1686037,13.0,3.0,12.0,copa vida cafe llc,46.0,Only Food,56.0,150.0
196,4.0,18.0,R-196,32.9183871,-117.1225405,16.0,16.0,23.0,the fancy fish inc,79.0,Food & Drinks,75.0,155.0
197,2.0,16.0,R-197,32.832464,-117.1272925,13.0,3.0,12.0,harvest taco shop,46.0,Only Food,67.0,155.0
198,2.0,16.0,R-198,32.9828696,-117.0742328,13.0,3.0,12.0,yesenia's mexican food,46.0,Only Food,80.0,161.0
199,4.0,18.0,R-199,32.7515554,-117.2062744,16.0,16.0,23.0,round table pizza,79.0,Food & Drinks,59.0,145.0
200,2.0,16.0,R-200,32.6945372,-117.1016271,13.0,3.0,12.0,hot dogs tomateros,46.0,Only Food,54.0,158.0
201,2.0,16.0,R-201,32.7191202,-117.143804,13.0,3.0,12.0,chi town dogszz,46.0,Only Food,56.0,153.0
202,4.0,18.0,R-202,32.7504135,-117.2133338,16.0,16.0,23.0,el charro taco shop,79.0,Food & Drinks,59.0,145.0
203,2.0,16.0,R-203,32.7091252,-117.0938586,13.0,3.0,12.0,big mama's backyard bbq,46.0,Only Food,55.0,159.0
204,4.0,18.0,R-204,32.8306952,-117.1277878,16.0,16.0,23.0,adrian's surf n turf grill,79.0,Food & Drinks,67.0,155.0
205,18.0,4.0,R-205,32.7534697,-117.0621747,2.0,20.0,18.0,african spice sambusa,62.0,Only Drinks,59.0,163.0
206,2.0,16.0,R-206,32.7401595,-117.2111954,13.0,3.0,12.0,olala crepes llc,46.0,Only Food,58.0,145.0
207,4.0,18.0,R-207,32.7113127,-117.103601,16.0,16.0,23.0,bowlegged b b que,79.0,Food & Drinks,56.0,158.0
208,2.0,16.0,R-208,32.7472535,-117.2520441,13.0,3.0,12.0,jungle java inc,46.0,Only Food,59.0,140.0
209,4.0,18.0,R-209,32.8268733,-117.1551371,16.0,16.0,23.0,tasty pot,79.0,Food & Drinks,66.0,151.0
210,18.0,4.0,R-210,32.5763274,-117.068757,2.0,20.0,18.0,tomatito mexican food,62.0,Only Drinks,43.0,162.0
211,18.0,4.0,R-211,32.8708871,-117.2269089,2.0,20.0,18.0,the patio marketplace,62.0,Only Drinks,70.0,143.0
212,2.0,16.0,R-212,32.5966729,-117.0661865,13.0,3.0,12.0,el sonorense hot dogs,46.0,Only Food,45.0,162.0
213,18.0,4.0,R-213,32.8266692,-117.1558469,2.0,20.0,18.0,noodle hut,62.0,Only Drinks,66.0,151.0
214,2.0,16.0,R-214,32.8472506,-117.2717126,13.0,3.0,12.0,pinpoint cafe,46.0,Only Food,68.0,138.0
215,2.0,16.0,R-215,32.7153964,-116.9969978,13.0,3.0,12.0,emily's taco shop &birrieria,46.0,Only Food,56.0,170.0
216,4.0,18.0,R-216,32.741498,-117.211658,16.0,16.0,23.0,officine buona forchetta,79.0,Food & Drinks,58.0,145.0
217,2.0,16.0,R-217,32.711821,-117.1566931,13.0,3.0,12.0,the kebab shop,46.0,Only Food,56.0,151.0
218,2.0,16.0,R-218,32.7549176,-117.104791,13.0,3.0,12.0,royal garden restaurant,46.0,Only Food,60.0,158.0
219,2.0,16.0,R-219,32.7766879,-117.11985,13.0,3.0,12.0,big daddy 's deli,46.0,Only Food,62.0,156.0
220,4.0,18.0,R-220,32.9190864,-117.1217723,16.0,16.0,23.0,the kebab shop,79.0,Food & Drinks,75.0,155.0
221,4.0,18.0,R-221,33.0214928,-117.0727134,16.0,16.0,23.0,the kebab shop,79.0,Food & Drinks,84.0,161.0
222,2.0,16.0,R-222,32.7207863,-117.1657691,13.0,3.0,12.0,the kebab shop,46.0,Only Food,56.0,150.0
223,2.0,16.0,R-223,32.7706746,-117.1502571,13.0,3.0,12.0,the kebab shop,46.0,Only Food,61.0,152.0
224,2.0,16.0,R-224,32.8206349,-117.1546101,13.0,3.0,12.0,cali banh mi,46.0,Only Food,66.0,152.0
225,4.0,18.0,R-225,32.5528006,-117.0432458,16.0,16.0,23.0,sushi jj & pho noodles,79.0,Food & Drinks,41.0,165.0
226,2.0,16.0,R-226,32.6925297,-117.1339886,13.0,3.0,12.0,el pollo loco 3316,46.0,Only Food,54.0,154.0
227,2.0,16.0,R-227,32.7983658,-117.2490965,13.0,3.0,12.0,coffee milano,46.0,Only Food,64.0,140.0
228,18.0,4.0,R-228,32.7468421,-117.1297975,2.0,20.0,18.0,mr moto pizza house,62.0,Only Drinks,59.0,155.0
229,4.0,18.0,R-229,32.7486815,-117.1311824,16.0,16.0,23.0,tamarindo north park,79.0,Food & Drinks,59.0,154.0
230,2.0,16.0,R-230,32.6769627,-117.0392157,13.0,3.0,12.0,wingstop,46.0,Only Food,52.0,165.0
231,2.0,16.0,R-231,32.7204153,-117.1579137,13.0,3.0,12.0,soleluna cafe,46.0,Only Food,56.0,151.0
232,4.0,18.0,R-232,32.737944,-117.2119253,16.0,16.0,23.0,soda & swine liberty,79.0,Food & Drinks,58.0,145.0
233,2.0,16.0,R-233,32.7990323,-117.1586641,13.0,3.0,12.0,fork yeah food truck,46.0,Only Food,64.0,151.0
234,2.0,16.0,R-234,32.7667708,-117.1952642,13.0,3.0,12.0,babe brewing co,46.0,Only Food,61.0,147.0
235,4.0,18.0,R-235,32.9007754,-117.1932132,16.0,16.0,23.0,holy gao,79.0,Food & Drinks,73.0,147.0
236,4.0,18.0,R-236,32.824505,-117.1549076,16.0,16.0,23.0,cafe stems,79.0,Food & Drinks,66.0,152.0
237,2.0,16.0,R-237,32.8712569,-117.2097355,13.0,3.0,12.0,johnny rockets,46.0,Only Food,70.0,145.0
238,2.0,16.0,R-238,32.6957935,-117.1251417,13.0,3.0,12.0,shelly's deli #2,46.0,Only Food,54.0,155.0
239,2.0,16.0,R-239,32.7138386,-117.1603866,13.0,3.0,12.0,cafe 21,46.0,Only Food,56.0,151.0
240,2.0,16.0,R-240,32.8220929,-117.1843606,13.0,3.0,12.0,the forum coffee house,46.0,Only Food,66.0,148.0
241,2.0,16.0,R-241,32.8679719,-117.2327916,13.0,3.0,12.0,mendocino farms sandwich market,46.0,Only Food,70.0,142.0
242,4.0,18.0,R-242,32.7106427,-117.1700038,16.0,16.0,23.0,flour  barley,79.0,Food & Drinks,56.0,150.0
243,4.0,18.0,R-243,32.8201891,-117.1547099,16.0,16.0,23.0,your story,79.0,Food & Drinks,66.0,152.0
244,4.0,18.0,R-244,32.7553641,-117.0957016,16.0,16.0,23.0,quan chao cho restaurant,79.0,Food & Drinks,60.0,159.0
245,2.0,16.0,R-245,32.748234,-117.1297211,13.0,3.0,12.0,figaro desserts,46.0,Only Food,59.0,155.0
246,2.0,16.0,R-246,32.95076,-117.1067709,13.0,3.0,12.0,don rios mexican food,46.0,Only Food,78.0,157.0
247,18.0,4.0,R-247,32.7430429,-117.1606469,2.0,20.0,18.0,la marque llc,62.0,Only Drinks,58.0,151.0
248,18.0,4.0,R-248,32.7304824,-117.2308791,2.0,20.0,18.0,curto depalmo inc,62.0,Only Drinks,57.0,142.0
249,18.0,4.0,R-249,32.7108159,-117.2424168,2.0,20.0,18.0,pipirin holdings inc,62.0,Only Drinks,56.0,141.0
250,18.0,4.0,R-250,32.8320734,-117.2025789,2.0,20.0,18.0,arely french bakery inc,62.0,Only Drinks,67.0,146.0
251,18.0,4.0,R-251,32.8761583,-117.2108647,2.0,20.0,18.0,jmtx llc,62.0,Only Drinks,71.0,145.0
252,18.0,4.0,R-252,32.7659126,-117.1557735,2.0,20.0,18.0,o - nami corporation,62.0,Only Drinks,61.0,151.0
253,18.0,4.0,R-253,32.7283647,-117.2382743,2.0,20.0,18.0,tatum investment group llc,62.0,Only Drinks,57.0,142.0
254,18.0,4.0,R-254,32.958961,-117.125769,2.0,20.0,18.0,cotijas penasquitos inc,62.0,Only Drinks,78.0,155.0
255,18.0,4.0,R-255,32.7555943,-117.1150468,2.0,20.0,18.0,hsw brothers inc,62.0,Only Drinks,60.0,156.0
256,18.0,4.0,R-256,32.784659,-117.0980572,2.0,20.0,18.0,farooqi food group inc,62.0,Only Drinks,62.0,158.0
257,18.0,4.0,R-257,32.815087,-117.219451,2.0,20.0,18.0,kitchen 4140 san diego inc,62.0,Only Drinks,65.0,144.0
258,18.0,4.0,R-258,32.8314173,-117.1550676,2.0,20.0,18.0,a & s industries inc,62.0,Only Drinks,67.0,152.0
259,18.0,4.0,R-259,32.770596,-117.134668,2.0,20.0,18.0,euclid beverage company llc,62.0,Only Drinks,61.0,154.0
260,18.0,4.0,R-260,32.7719176,-117.2023147,2.0,20.0,18.0,regal griffin llc,62.0,Only Drinks,61.0,146.0
261,18.0,4.0,R-261,33.0048168,-117.0911296,2.0,20.0,18.0,pour sports llc,62.0,Only Drinks,82.0,159.0
262,4.0,18.0,R-262,32.7039164,-117.1494745,16.0,16.0,23.0,matuas sushi bar & islander grill inc,79.0,Food & Drinks,55.0,152.0
263,18.0,4.0,R-263,32.7159779,-117.1604118,2.0,20.0,18.0,phantom lounge and nightclub llc,62.0,Only Drinks,56.0,151.0
264,18.0,4.0,R-264,32.7997162,-117.2412927,2.0,20.0,18.0,buddys diner inc,62.0,Only Drinks,64.0,141.0
265,18.0,4.0,R-265,32.7506702,-117.1932472,2.0,20.0,18.0,mayur llc,62.0,Only Drinks,59.0,147.0
266,4.0,18.0,R-266,32.913852,-117.146008,16.0,16.0,23.0,lake willows enterprises llc,79.0,Food & Drinks,74.0,153.0
267,4.0,18.0,R-267,33.0191705,-117.0740573,16.0,16.0,23.0,dragon style buffet,79.0,Food & Drinks,84.0,161.0
268,18.0,4.0,R-268,32.9122226,-117.147141,2.0,20.0,18.0,rockin baja lobster mira mesa,62.0,Only Drinks,74.0,152.0
269,2.0,16.0,R-269,32.7836738,-117.1013072,13.0,3.0,12.0,goal keeper restaurant,46.0,Only Food,62.0,158.0
270,4.0,18.0,R-270,33.0175522,-117.0737565,16.0,16.0,23.0,mae ploy thai cuisine,79.0,Food & Drinks,84.0,161.0
271,2.0,16.0,R-271,32.7867799,-117.0974648,13.0,3.0,12.0,subway 744,46.0,Only Food,62.0,158.0
272,18.0,4.0,R-272,32.7218283,-117.2304614,2.0,20.0,18.0,coffee hub & cafe,62.0,Only Drinks,57.0,142.0
273,2.0,16.0,R-273,32.7624216,-117.06647,13.0,3.0,12.0,subway 39778,46.0,Only Food,60.0,162.0
274,2.0,16.0,R-274,32.7549528,-117.1207638,13.0,3.0,12.0,kyrios frutas y mariscos,46.0,Only Food,60.0,156.0
275,2.0,16.0,R-275,32.67295,-117.108912,13.0,3.0,12.0,yummy's ice cream / m m ice cream,46.0,Only Food,52.0,157.0
276,4.0,18.0,R-276,32.8212614,-117.1559382,16.0,16.0,23.0,trade winds tavern,79.0,Food & Drinks,66.0,151.0
277,18.0,4.0,R-277,32.7279482,-117.1011375,2.0,20.0,18.0,a southern rose and catering,62.0,Only Drinks,57.0,158.0
278,2.0,16.0,R-278,32.7497251,-117.0909785,13.0,3.0,12.0,mucha fruta,46.0,Only Food,59.0,159.0
279,4.0,18.0,R-279,32.784427,-117.1113343,16.0,16.0,23.0,royal grill kabob,79.0,Food & Drinks,62.0,157.0
280,2.0,16.0,R-280,32.7279405,-117.1708156,13.0,3.0,12.0,bird rock coffee roasters,46.0,Only Food,57.0,150.0
281,2.0,16.0,R-281,32.8310642,-117.1383989,13.0,3.0,12.0,subway #43414,46.0,Only Food,67.0,153.0
282,4.0,18.0,R-282,33.0180021,-117.0746683,16.0,16.0,23.0,ihop #3548,79.0,Food & Drinks,84.0,161.0
283,2.0,16.0,R-283,32.7499763,-117.0684368,13.0,3.0,12.0,fruteria la buga,46.0,Only Food,59.0,162.0
284,4.0,18.0,R-284,33.0175522,-117.0737565,16.0,16.0,23.0,pamir kabob house inc,79.0,Food & Drinks,84.0,161.0
285,4.0,18.0,R-285,32.9092144,-117.1807853,16.0,16.0,23.0,guckenheimer services llc @ cruzan,79.0,Food & Drinks,74.0,148.0
286,18.0,4.0,R-286,32.9208011,-117.2144504,2.0,20.0,18.0,crust pizzeria,62.0,Only Drinks,75.0,144.0
287,18.0,4.0,R-287,33.0281308,-117.1116137,2.0,20.0,18.0,new kitchen styles llc,62.0,Only Drinks,85.0,157.0
288,18.0,4.0,R-288,32.9509255,-117.1154313,2.0,20.0,18.0,jy group usa inc,62.0,Only Drinks,78.0,156.0
289,4.0,18.0,R-289,32.7151211,-117.1630874,16.0,16.0,23.0,thai time downtown restaurant,79.0,Food & Drinks,56.0,151.0
290,18.0,4.0,R-290,33.010564,-116.919315,2.0,20.0,18.0,salerno food and services llc,62.0,Only Drinks,83.0,180.0
291,4.0,18.0,R-291,32.8162002,-117.2705864,16.0,16.0,23.0,voce del mare,79.0,Food & Drinks,65.0,138.0
292,4.0,18.0,R-292,32.9060412,-117.1726282,16.0,16.0,23.0,santorini express,79.0,Food & Drinks,73.0,149.0
293,2.0,16.0,R-293,32.6990951,-117.1460615,13.0,3.0,12.0,asia wok,46.0,Only Food,54.0,153.0
294,18.0,4.0,R-294,32.7117985,-117.155869,2.0,20.0,18.0,dhmm tavernbowl llc,62.0,Only Drinks,56.0,151.0
295,2.0,16.0,R-295,32.9050155,-117.2288684,13.0,3.0,12.0,copa vida cafe,46.0,Only Food,73.0,143.0
296,4.0,18.0,R-296,32.7140712,-117.1599537,16.0,16.0,23.0,incas shots & yards,79.0,Food & Drinks,56.0,151.0
297,4.0,18.0,R-297,32.8164815,-117.2708717,16.0,16.0,23.0,wheat and water,79.0,Food & Drinks,65.0,138.0
298,2.0,16.0,R-298,32.8330464,-117.1617352,13.0,3.0,12.0,delivered dish,46.0,Only Food,67.0,151.0
299,2.0,16.0,R-299,32.791894,-117.1759943,13.0,3.0,12.0,giant pizza king,46.0,Only Food,63.0,149.0
300,2.0,16.0,R-300,32.7899822,-117.239251,13.0,3.0,12.0,red wagon pizza san diego,46.0,Only Food,63.0,141.0
301,2.0,16.0,R-301,32.7065772,-117.13222,13.0,3.0,12.0,cotys deli,46.0,Only Food,55.0,154.0
302,2.0,16.0,R-302,32.806216,-117.220429,13.0,3.0,12.0,sonic drive in,46.0,Only Food,64.0,144.0
303,2.0,16.0,R-303,32.7536752,-117.2171531,13.0,3.0,12.0,oscars mexican food,46.0,Only Food,59.0,144.0
304,2.0,16.0,R-304,32.7081462,-117.1431513,13.0,3.0,12.0,thai tea station,46.0,Only Food,55.0,153.0
305,2.0,16.0,R-305,32.5958358,-117.0521124,13.0,3.0,12.0,mitad del mundo,46.0,Only Food,45.0,164.0
306,2.0,16.0,R-306,32.7645744,-117.1607307,13.0,3.0,12.0,juicin' java,46.0,Only Food,60.0,151.0
307,2.0,16.0,R-307,32.7725524,-117.0375045,13.0,3.0,12.0,chuckies llc,46.0,Only Food,61.0,166.0
308,4.0,18.0,R-308,32.7496321,-117.0797272,16.0,16.0,23.0,pho huong viet,79.0,Food & Drinks,59.0,161.0
309,2.0,16.0,R-309,32.7367494,-117.2548789,13.0,3.0,12.0,the surf check,46.0,Only Food,58.0,140.0
310,4.0,18.0,R-310,32.8215366,-117.176954,16.0,16.0,23.0,shan xi magic kitchen,79.0,Food & Drinks,66.0,149.0
311,4.0,18.0,R-311,32.8204155,-117.1774145,16.0,16.0,23.0,mr a cafe,79.0,Food & Drinks,66.0,149.0
312,2.0,16.0,R-312,32.7553145,-117.1006186,13.0,3.0,12.0,tortas ahogadas la potranca tapatia,46.0,Only Food,60.0,158.0
313,4.0,18.0,R-313,32.7914634,-117.100748,16.0,16.0,23.0,himalayan curry & grill,79.0,Food & Drinks,63.0,158.0
314,4.0,18.0,R-314,32.9147831,-117.1140664,16.0,16.0,23.0,himalayan grill,79.0,Food & Drinks,74.0,156.0
315,2.0,16.0,R-315,32.7562805,-117.0885673,13.0,3.0,12.0,crispy fried chicken,46.0,Only Food,60.0,159.0
316,4.0,18.0,R-316,32.7448606,-117.1601616,16.0,16.0,23.0,concept two seven eight,79.0,Food & Drinks,59.0,151.0
317,4.0,18.0,R-317,32.715547,-117.156243,16.0,16.0,23.0,doghaus san diego,79.0,Food & Drinks,56.0,151.0
318,2.0,16.0,R-318,32.5834849,-117.0956972,13.0,3.0,12.0,los rancheros inc,46.0,Only Food,44.0,159.0
319,4.0,18.0,R-319,32.8433586,-117.2752878,16.0,16.0,23.0,the public house,79.0,Food & Drinks,68.0,137.0
320,2.0,16.0,R-320,32.6272407,-117.1304676,13.0,3.0,12.0,franklin's cuts,46.0,Only Food,48.0,154.0
321,18.0,4.0,R-321,32.7423349,-117.1298608,2.0,20.0,18.0,denedin north park,62.0,Only Drinks,58.0,155.0
322,2.0,16.0,R-322,32.7112467,-117.1521157,13.0,3.0,12.0,alpha pizzeria & deli,46.0,Only Food,56.0,152.0
323,2.0,16.0,R-323,32.717176,-117.1292768,13.0,3.0,12.0,ryan's beyond organic,46.0,Only Food,56.0,155.0
324,2.0,16.0,R-324,32.707582,-116.994564,13.0,3.0,12.0,belindas familia restaurant,46.0,Only Food,55.0,171.0
325,18.0,4.0,R-325,32.7286925,-117.2174053,2.0,20.0,18.0,olssd llc,62.0,Only Drinks,57.0,144.0
326,4.0,18.0,R-326,32.9614982,-117.1896408,16.0,16.0,23.0,wokou noodles pour,79.0,Food & Drinks,79.0,147.0
327,4.0,18.0,R-327,33.0232362,-117.0765762,16.0,16.0,23.0,curry and more,79.0,Food & Drinks,84.0,161.0
328,2.0,16.0,R-328,32.678364,-117.038105,13.0,3.0,12.0,gema ice cream,46.0,Only Food,53.0,165.0
329,2.0,16.0,R-329,32.7722242,-117.0695934,13.0,3.0,12.0,pho fifth avenue express,46.0,Only Food,61.0,162.0
330,4.0,18.0,R-330,32.8401026,-117.2732466,16.0,16.0,23.0,masala street,79.0,Food & Drinks,67.0,137.0
331,18.0,4.0,R-331,32.7483694,-117.1983205,2.0,20.0,18.0,jdub grab & go,62.0,Only Drinks,59.0,146.0
332,2.0,16.0,R-332,32.8322319,-117.1470856,13.0,3.0,12.0,camellia rd,46.0,Only Food,67.0,152.0
333,2.0,16.0,R-333,33.0159627,-117.1107015,13.0,3.0,12.0,yogurt heaven iv,46.0,Only Food,84.0,157.0
334,4.0,18.0,R-334,32.8039062,-117.1395257,16.0,16.0,23.0,thai pepper cuisine,79.0,Food & Drinks,64.0,153.0
335,2.0,16.0,R-335,32.8712569,-117.2097355,13.0,3.0,12.0,charley's philly steaks,46.0,Only Food,70.0,145.0
336,4.0,18.0,R-336,32.839438,-117.2762433,16.0,16.0,23.0,wahoo's fish taco,79.0,Food & Drinks,67.0,137.0
337,4.0,18.0,R-337,32.755742,-117.2218135,16.0,16.0,23.0,wahoo's fish taco,79.0,Food & Drinks,60.0,144.0
338,4.0,18.0,R-338,32.7286261,-117.1718025,16.0,16.0,23.0,loading dock,79.0,Food & Drinks,57.0,150.0
339,18.0,4.0,R-339,32.7109897,-117.154021,2.0,20.0,18.0,the parlour,62.0,Only Drinks,56.0,152.0
340,2.0,16.0,R-340,32.9615089,-117.1903617,13.0,3.0,12.0,the baked bear,46.0,Only Food,79.0,147.0
341,4.0,18.0,R-341,32.7913197,-117.2544418,16.0,16.0,23.0,coconut thai asian bistro,79.0,Food & Drinks,63.0,140.0
342,4.0,18.0,R-342,32.7122392,-117.0485487,16.0,16.0,23.0,taqueria imperial,79.0,Food & Drinks,56.0,164.0
343,2.0,16.0,R-343,32.6902935,-117.0569069,13.0,3.0,12.0,kis met 275 tz,46.0,Only Food,54.0,163.0
344,4.0,18.0,R-344,32.7487357,-117.1293616,16.0,16.0,23.0,poki one n half,79.0,Food & Drinks,59.0,155.0
345,4.0,18.0,R-345,32.7154792,-117.1636313,16.0,16.0,23.0,feast california cafe llc,79.0,Food & Drinks,56.0,150.0
346,4.0,18.0,R-346,32.7622224,-117.0671716,16.0,16.0,23.0,fish pit,79.0,Food & Drinks,60.0,162.0
347,2.0,16.0,R-347,32.7331329,-117.2011817,13.0,3.0,12.0,beaudevin t2,46.0,Only Food,58.0,146.0
348,4.0,18.0,R-348,32.7658595,-117.2510672,16.0,16.0,23.0,capri pizza and grill,79.0,Food & Drinks,61.0,140.0
349,2.0,16.0,R-349,32.7155785,-117.1605262,13.0,3.0,12.0,senor taquero,46.0,Only Food,56.0,151.0
350,2.0,16.0,R-350,33.00206,-117.059122,13.0,3.0,12.0,asadero taco shop,46.0,Only Food,82.0,163.0
351,4.0,18.0,R-351,32.8331843,-117.1499945,16.0,16.0,23.0,chaba thai kitchen,79.0,Food & Drinks,67.0,152.0
352,4.0,18.0,R-352,32.8669836,-117.233207,16.0,16.0,23.0,bjs restaurant and brewhouse,79.0,Food & Drinks,70.0,142.0
353,4.0,18.0,R-353,32.7659126,-117.1557735,16.0,16.0,23.0,356 degrees korean bbq,79.0,Food & Drinks,61.0,151.0
354,2.0,16.0,R-354,32.9266158,-117.1439002,13.0,3.0,12.0,tp banh bao inc,46.0,Only Food,75.0,153.0
355,2.0,16.0,R-355,32.7639803,-117.0618343,13.0,3.0,12.0,pita pit,46.0,Only Food,60.0,163.0
356,2.0,16.0,R-356,32.8729501,-117.2121703,13.0,3.0,12.0,jersey mikes subs utc,46.0,Only Food,70.0,145.0
357,2.0,16.0,R-357,32.9051246,-117.2147331,13.0,3.0,12.0,grandmas kitchen,46.0,Only Food,73.0,144.0
358,2.0,16.0,R-358,32.7454572,-117.1054697,13.0,3.0,12.0,cordovas food,46.0,Only Food,59.0,157.0
359,2.0,16.0,R-359,32.7992146,-117.2409776,13.0,3.0,12.0,pho minh,46.0,Only Food,64.0,141.0
360,2.0,16.0,R-360,32.7159169,-117.1598893,13.0,3.0,12.0,eat clean san diego,46.0,Only Food,56.0,151.0
361,2.0,16.0,R-361,32.7112822,-117.160442,13.0,3.0,12.0,cinnaholic market street,46.0,Only Food,56.0,151.0
362,2.0,16.0,R-362,32.736511,-117.21653,13.0,3.0,12.0,nekter juice bar,46.0,Only Food,58.0,144.0
363,18.0,4.0,R-363,32.9132694,-117.1442436,2.0,20.0,18.0,the habit burger grill,62.0,Only Drinks,74.0,153.0
364,4.0,18.0,R-364,32.7968511,-117.2552823,16.0,16.0,23.0,denny's,79.0,Food & Drinks,63.0,140.0
365,2.0,16.0,R-365,32.7384307,-117.1605491,13.0,3.0,12.0,juice alchemy,46.0,Only Food,58.0,151.0
366,2.0,16.0,R-366,32.7794448,-117.1354129,13.0,3.0,12.0,angeli's cafe llc,46.0,Only Food,62.0,154.0
367,4.0,18.0,R-367,32.756361,-117.1974984,16.0,16.0,23.0,la pinata,79.0,Food & Drinks,60.0,146.0
368,4.0,18.0,R-368,32.9060412,-117.1726282,16.0,16.0,23.0,yoshi sushi,79.0,Food & Drinks,73.0,149.0
369,2.0,16.0,R-369,32.748293,-116.9880723,13.0,3.0,12.0,east county tacos and beers,46.0,Only Food,59.0,171.0
370,4.0,18.0,R-370,32.7606538,-117.0679826,16.0,16.0,23.0,pesto craft kitchen,79.0,Food & Drinks,60.0,162.0
371,18.0,4.0,R-371,32.6966201,-117.0939888,2.0,20.0,18.0,be fresh,62.0,Only Drinks,54.0,159.0
372,2.0,16.0,R-372,32.8094005,-117.1422907,13.0,3.0,12.0,carve,46.0,Only Food,65.0,153.0
373,2.0,16.0,R-373,32.8329468,-117.1492353,13.0,3.0,12.0,sugarsweets dessert,46.0,Only Food,67.0,152.0
374,2.0,16.0,R-374,32.8789946,-117.2270116,13.0,3.0,12.0,pacific cafe & catering,46.0,Only Food,71.0,143.0
375,4.0,18.0,R-375,32.8335693,-117.1584372,16.0,16.0,23.0,yakitori hino,79.0,Food & Drinks,67.0,151.0
376,4.0,18.0,R-376,32.7480984,-117.1606861,16.0,16.0,23.0,chocolathillcrest,79.0,Food & Drinks,59.0,151.0
377,4.0,18.0,R-377,32.8108195,-117.1160164,16.0,16.0,23.0,pho saigon bliss,79.0,Food & Drinks,65.0,156.0
378,4.0,18.0,R-378,32.5558208,-116.9367491,16.0,16.0,23.0,restaurant vallarta,79.0,Food & Drinks,41.0,178.0
379,4.0,18.0,R-379,32.8393632,-117.0986716,16.0,16.0,23.0,edamami restaurant,79.0,Food & Drinks,67.0,158.0
380,18.0,4.0,R-380,32.8966077,-117.1373279,2.0,20.0,18.0,protector brewery l.l.c.,62.0,Only Drinks,73.0,154.0
381,4.0,18.0,R-381,32.755742,-117.2218135,16.0,16.0,23.0,gaglione bros famous steaks,79.0,Food & Drinks,60.0,144.0
382,4.0,18.0,R-382,32.7304629,-117.1917902,16.0,16.0,23.0,ciaos t1 east rotunda post,79.0,Food & Drinks,57.0,147.0
383,4.0,18.0,R-383,32.7331329,-117.2011817,16.0,16.0,23.0,tommy vs t2 west,79.0,Food & Drinks,58.0,146.0
384,2.0,16.0,R-384,32.7539413,-117.0968189,13.0,3.0,12.0,casharia's place,46.0,Only Food,59.0,158.0
385,18.0,4.0,R-385,32.7453979,-117.2480881,2.0,20.0,18.0,belching beaver brewery inc,62.0,Only Drinks,59.0,140.0
386,2.0,16.0,R-386,32.7538059,-117.195693,13.0,3.0,12.0,santos cafe at the old town market,46.0,Only Food,59.0,147.0
387,4.0,18.0,R-387,32.7281247,-117.1702166,16.0,16.0,23.0,raki raki little italy,79.0,Food & Drinks,57.0,150.0
388,18.0,4.0,R-388,32.9182535,-117.126498,2.0,20.0,18.0,pacific poke co,62.0,Only Drinks,75.0,155.0
389,2.0,16.0,R-389,32.6928318,-117.1328022,13.0,3.0,12.0,thin and craft,46.0,Only Food,54.0,154.0
390,4.0,18.0,R-390,32.7871422,-117.1908179,16.0,16.0,23.0,sushi co,79.0,Food & Drinks,63.0,147.0
391,2.0,16.0,R-391,32.7143482,-117.1647085,13.0,3.0,12.0,saint tropez bistro,46.0,Only Food,56.0,150.0
392,2.0,16.0,R-392,32.7658595,-117.2510672,13.0,3.0,12.0,capri pizza and philly steaks,46.0,Only Food,61.0,140.0
393,4.0,18.0,R-393,32.8241863,-117.1203379,16.0,16.0,23.0,corner deli,79.0,Food & Drinks,66.0,156.0
394,2.0,16.0,R-394,32.8141393,-117.1539653,13.0,3.0,12.0,rosas pizza,46.0,Only Food,65.0,152.0
395,4.0,18.0,R-395,32.70863,-117.155347,16.0,16.0,23.0,como ceviche,79.0,Food & Drinks,55.0,151.0
396,4.0,18.0,R-396,32.7491132,-117.1521095,16.0,16.0,23.0,taste of the himalayas,79.0,Food & Drinks,59.0,152.0
397,2.0,16.0,R-397,32.8786315,-117.1680309,13.0,3.0,12.0,jersey mike s subs,46.0,Only Food,71.0,150.0
398,2.0,16.0,R-398,32.5528586,-117.0423965,13.0,3.0,12.0,la golondrina,46.0,Only Food,41.0,165.0
399,4.0,18.0,R-399,32.748082,-117.1602215,16.0,16.0,23.0,tokyo ramen,79.0,Food & Drinks,59.0,151.0
400,2.0,16.0,R-400,32.6058247,-117.0883023,13.0,3.0,12.0,el shrimp bucket,46.0,Only Food,46.0,159.0
401,2.0,16.0,R-401,32.8423403,-117.1716755,13.0,3.0,12.0,omega cafe catering,46.0,Only Food,68.0,150.0
402,2.0,16.0,R-402,32.5811919,-117.0094341,13.0,3.0,12.0,maine lobster company,46.0,Only Food,44.0,169.0
403,4.0,18.0,R-403,32.7630524,-117.1293415,16.0,16.0,23.0,el zarape mexican eatery,79.0,Food & Drinks,60.0,155.0
404,4.0,18.0,R-404,32.725526,-117.1702138,16.0,16.0,23.0,rovino rotisserie & wine,79.0,Food & Drinks,57.0,150.0
405,2.0,16.0,R-405,32.6962552,-117.1136531,13.0,3.0,12.0,birras taco shop jr,46.0,Only Food,54.0,156.0
406,4.0,18.0,R-406,32.7935134,-117.0982316,16.0,16.0,23.0,picante taqueria mexican grill,79.0,Food & Drinks,63.0,158.0
407,4.0,18.0,R-407,32.7496321,-117.0797272,16.0,16.0,23.0,pho & banh cuon van hoa restaurant,79.0,Food & Drinks,59.0,161.0
408,18.0,4.0,R-408,32.743084,-117.1807729,2.0,20.0,18.0,saffron thai llc,62.0,Only Drinks,58.0,148.0
409,4.0,18.0,R-409,32.8215366,-117.176954,16.0,16.0,23.0,krispy krunchy chicken,79.0,Food & Drinks,66.0,149.0
410,4.0,18.0,R-410,32.7486626,-117.2057778,16.0,16.0,23.0,guahan grill,79.0,Food & Drinks,59.0,145.0
411,4.0,18.0,R-411,32.7489114,-117.1607399,16.0,16.0,23.0,h2o sushi & izakaya,79.0,Food & Drinks,59.0,151.0
412,4.0,18.0,R-412,32.7650436,-117.0613016,16.0,16.0,23.0,social tap college llc,79.0,Food & Drinks,61.0,163.0
413,4.0,18.0,R-413,32.7110086,-117.1613778,16.0,16.0,23.0,dublin square irish pub & grill,79.0,Food & Drinks,56.0,151.0
414,4.0,18.0,R-414,32.722149,-117.1596224,16.0,16.0,23.0,pho & sushi bar,79.0,Food & Drinks,57.0,151.0
415,2.0,16.0,R-415,33.182201,-117.313303,13.0,3.0,12.0,street chef california llc,46.0,Only Food,99.0,133.0
416,2.0,16.0,R-416,32.7209097,-117.1688974,13.0,3.0,12.0,carnivore sandwich,46.0,Only Food,56.0,150.0
417,4.0,18.0,R-417,32.7115583,-117.1529385,16.0,16.0,23.0,beshock,79.0,Food & Drinks,56.0,152.0
418,2.0,16.0,R-418,32.8314446,-117.1209243,13.0,3.0,12.0,calis fries,46.0,Only Food,67.0,156.0
419,18.0,4.0,R-419,32.8895229,-117.2442172,2.0,20.0,18.0,bellav 1,62.0,Only Drinks,72.0,141.0
420,2.0,16.0,R-420,32.713113,-117.16045,13.0,3.0,12.0,hot dog bar,46.0,Only Food,56.0,151.0
421,2.0,16.0,R-421,32.804332,-117.0382872,13.0,3.0,12.0,pure press,46.0,Only Food,64.0,165.0
422,2.0,16.0,R-422,32.7686187,-117.1341395,13.0,3.0,12.0,the ageless kitchen,46.0,Only Food,61.0,154.0
423,2.0,16.0,R-423,32.7164429,-117.1675675,13.0,3.0,12.0,kuma cafe,46.0,Only Food,56.0,150.0
424,4.0,18.0,R-424,32.74761,-117.2518458,16.0,16.0,23.0,newport pizza and ale house,79.0,Food & Drinks,59.0,140.0
425,4.0,18.0,R-425,32.8310642,-117.1383989,16.0,16.0,23.0,pho duyen mai,79.0,Food & Drinks,67.0,153.0
426,4.0,18.0,R-426,32.7485808,-117.2057861,16.0,16.0,23.0,native foods cafe,79.0,Food & Drinks,59.0,145.0
427,2.0,16.0,R-427,32.6431723,-117.0039462,13.0,3.0,12.0,monster crafts,46.0,Only Food,49.0,170.0
428,2.0,16.0,R-428,32.7984819,-117.2524399,13.0,3.0,12.0,cafe 976 felspar,46.0,Only Food,64.0,140.0
429,4.0,18.0,R-429,32.7477894,-117.1618078,16.0,16.0,23.0,the kouch,79.0,Food & Drinks,59.0,151.0
430,2.0,16.0,R-430,32.7974095,-117.2509568,13.0,3.0,12.0,primitive smoke bbq,46.0,Only Food,63.0,140.0
431,2.0,16.0,R-431,32.7659126,-117.1557735,13.0,3.0,12.0,cinnaholic,46.0,Only Food,61.0,151.0
432,2.0,16.0,R-432,32.8206408,-117.179873,13.0,3.0,12.0,blaze pizza,46.0,Only Food,66.0,149.0
433,4.0,18.0,R-433,32.8950431,-117.1276983,16.0,16.0,23.0,khan baba kabab house llc,79.0,Food & Drinks,72.0,155.0
434,2.0,16.0,R-434,32.887102,-117.1700266,13.0,3.0,12.0,breakfast burrito,46.0,Only Food,72.0,150.0
435,2.0,16.0,R-435,32.7473239,-117.1279749,13.0,3.0,12.0,tribute pizza,46.0,Only Food,59.0,155.0
436,4.0,18.0,R-436,32.8253794,-117.1544343,16.0,16.0,23.0,facing east,79.0,Food & Drinks,66.0,152.0
437,2.0,16.0,R-437,32.756328,-117.0888469,13.0,3.0,12.0,santa ana fresh mexican food,46.0,Only Food,60.0,159.0
438,4.0,18.0,R-438,32.7497879,-117.0924525,16.0,16.0,23.0,little italy pizzaria pasta 2,79.0,Food & Drinks,59.0,159.0
439,2.0,16.0,R-439,32.7980757,-117.1513115,13.0,3.0,12.0,subway #2614,46.0,Only Food,64.0,152.0
440,2.0,16.0,R-440,32.59347,-117.0533094,13.0,3.0,12.0,swa ice cream,46.0,Only Food,45.0,164.0
441,2.0,16.0,R-441,32.979149,-117.0837534,13.0,3.0,12.0,starbucks coffee 47447,46.0,Only Food,80.0,160.0
442,2.0,16.0,R-442,32.797827,-117.2556421,13.0,3.0,12.0,cold stone creamery   20837,46.0,Only Food,64.0,139.0
443,2.0,16.0,R-443,32.6691582,-117.021341,13.0,3.0,12.0,gracielas taco shop,46.0,Only Food,52.0,167.0
444,2.0,16.0,R-444,32.871668,-116.975199,13.0,3.0,12.0,dakine grindz,46.0,Only Food,70.0,173.0
445,18.0,4.0,R-445,33.0212961,-117.1251753,2.0,20.0,18.0,choice juicery,62.0,Only Drinks,84.0,155.0
446,2.0,16.0,R-446,32.7414859,-117.1827676,13.0,3.0,12.0,middletown kitchen,46.0,Only Food,58.0,148.0
447,2.0,16.0,R-447,32.67295,-117.108912,13.0,3.0,12.0,joan ice cream,46.0,Only Food,52.0,157.0
448,4.0,18.0,R-448,32.9838823,-117.0782005,16.0,16.0,23.0,grub carmel mountain llc,79.0,Food & Drinks,81.0,161.0
449,2.0,16.0,R-449,32.7548377,-117.1447653,13.0,3.0,12.0,wingstop 132,46.0,Only Food,60.0,153.0
450,2.0,16.0,R-450,32.7487086,-117.206046,13.0,3.0,12.0,wingstop 131,46.0,Only Food,59.0,145.0
451,2.0,16.0,R-451,32.8384558,-117.2714682,13.0,3.0,12.0,socal lemonade,46.0,Only Food,67.0,138.0
452,2.0,16.0,R-452,32.7922191,-117.0989102,13.0,3.0,12.0,gaglione bros famous steaks,46.0,Only Food,63.0,158.0
453,4.0,18.0,R-453,32.7153639,-117.1594132,16.0,16.0,23.0,biga,79.0,Food & Drinks,56.0,151.0
454,2.0,16.0,R-454,32.7599579,-117.0704604,13.0,3.0,12.0,the living room coffeehouse,46.0,Only Food,60.0,162.0
455,2.0,16.0,R-455,32.7110527,-117.1455516,13.0,3.0,12.0,guacblocks,46.0,Only Food,56.0,153.0
456,2.0,16.0,R-456,32.577871,-117.094489,13.0,3.0,12.0,crisp fish n chips,46.0,Only Food,43.0,159.0
457,4.0,18.0,R-457,32.8205392,-117.1560108,16.0,16.0,23.0,lol bbq llc,79.0,Food & Drinks,66.0,151.0
458,4.0,18.0,R-458,32.8141393,-117.1539653,16.0,16.0,23.0,great wow,79.0,Food & Drinks,65.0,152.0
459,4.0,18.0,R-459,32.953619,-117.2334396,16.0,16.0,23.0,sushiya,79.0,Food & Drinks,78.0,142.0
460,2.0,16.0,R-460,32.824505,-117.1549076,13.0,3.0,12.0,boba bar and desserts,46.0,Only Food,66.0,152.0
461,4.0,18.0,R-461,32.9828696,-117.0742328,16.0,16.0,23.0,kyodai sushi,79.0,Food & Drinks,80.0,161.0
462,2.0,16.0,R-462,34.2803627,-118.4264611,13.0,3.0,12.0,los ruizenores gourmet truck,46.0,Only Food,200.0,0.0
463,4.0,18.0,R-463,32.9488808,-117.2472071,16.0,16.0,23.0,boto sushi del mar,79.0,Food & Drinks,77.0,140.0
464,2.0,16.0,R-464,32.6622126,-117.0101192,13.0,3.0,12.0,tacos el rey,46.0,Only Food,51.0,169.0
465,2.0,16.0,R-465,32.9779949,-117.0825874,13.0,3.0,12.0,krispy kreme doughnuts,46.0,Only Food,80.0,160.0
466,18.0,4.0,R-466,32.7811687,-117.1008956,2.0,20.0,18.0,jt's tavern,62.0,Only Drinks,62.0,158.0
467,4.0,18.0,R-467,32.867222,-117.2330046,16.0,16.0,23.0,urban plates llc,79.0,Food & Drinks,70.0,142.0
468,2.0,16.0,R-468,32.7555414,-117.1235175,13.0,3.0,12.0,mondragon & co company / la cochinita,46.0,Only Food,60.0,155.0
469,2.0,16.0,R-469,32.7842204,-117.1198895,13.0,3.0,12.0,flamed up on wheels,46.0,Only Food,62.0,156.0
470,4.0,18.0,R-470,32.9030189,-117.099923,16.0,16.0,23.0,little italy bar grill,79.0,Food & Drinks,73.0,158.0
471,2.0,16.0,R-471,32.7240476,-117.2301059,13.0,3.0,12.0,techoutfitters inc,46.0,Only Food,57.0,143.0
472,2.0,16.0,R-472,32.7991825,-117.244346,13.0,3.0,12.0,poke chop inc,46.0,Only Food,64.0,141.0
473,2.0,16.0,R-473,32.8314173,-117.1550676,13.0,3.0,12.0,poke u,46.0,Only Food,67.0,152.0
474,2.0,16.0,R-474,32.7552439,-117.2223152,13.0,3.0,12.0,treet desserts,46.0,Only Food,60.0,143.0
475,2.0,16.0,R-475,32.5958358,-117.0521124,13.0,3.0,12.0,cayene,46.0,Only Food,45.0,164.0
476,2.0,16.0,R-476,32.7623107,-117.1466483,13.0,3.0,12.0,meraki cafe,46.0,Only Food,60.0,153.0
477,2.0,16.0,R-477,32.8284352,-117.1256224,13.0,3.0,12.0,chiquita catering,46.0,Only Food,66.0,155.0
478,4.0,18.0,R-478,32.7193387,-117.1725047,16.0,16.0,23.0,claim jumper,79.0,Food & Drinks,56.0,149.0
479,2.0,16.0,R-479,32.7539839,-117.2226986,13.0,3.0,12.0,dominos 7707,46.0,Only Food,59.0,143.0
480,2.0,16.0,R-480,32.7168915,-117.0261489,13.0,3.0,12.0,dominos 7492,46.0,Only Food,56.0,167.0
481,4.0,18.0,R-481,32.724093,-117.2300495,16.0,16.0,23.0,sushi lounge point loma,79.0,Food & Drinks,57.0,143.0
482,2.0,16.0,R-482,32.6945372,-117.1016271,13.0,3.0,12.0,pescaderia y cevicheria lindo sinaloa,46.0,Only Food,54.0,158.0
483,4.0,18.0,R-483,32.8454157,-117.2763323,16.0,16.0,23.0,streetcar merchants,79.0,Food & Drinks,68.0,137.0
484,2.0,16.0,R-484,32.9761085,-117.068343,13.0,3.0,12.0,crispy crepes,46.0,Only Food,80.0,162.0
485,2.0,16.0,R-485,32.7250574,-117.1442834,13.0,3.0,12.0,st tropez bistro,46.0,Only Food,57.0,153.0
486,2.0,16.0,R-486,32.7373014,-117.1027975,13.0,3.0,12.0,burly and the bean,46.0,Only Food,58.0,158.0
487,2.0,16.0,R-487,32.7487073,-117.1612856,13.0,3.0,12.0,two paddles,46.0,Only Food,59.0,151.0
488,2.0,16.0,R-488,32.7510935,-117.0946207,13.0,3.0,12.0,gilbertos ice cream truck,46.0,Only Food,59.0,159.0
489,2.0,16.0,R-489,32.59347,-117.0533094,13.0,3.0,12.0,maria bonita,46.0,Only Food,45.0,164.0
490,4.0,18.0,R-490,32.848207,-117.2745203,16.0,16.0,23.0,shins la jolla,79.0,Food & Drinks,68.0,137.0
491,2.0,16.0,R-491,32.7110619,-117.0948143,13.0,3.0,12.0,wunder wiener,46.0,Only Food,56.0,159.0
492,2.0,16.0,R-492,32.7136302,-117.1612808,13.0,3.0,12.0,auntie anne's ca223,46.0,Only Food,56.0,151.0
493,18.0,4.0,R-493,33.020259,-117.1240315,2.0,20.0,18.0,burger lounge,62.0,Only Drinks,84.0,155.0
494,4.0,18.0,R-494,32.9702215,-117.1607719,16.0,16.0,23.0,savory kitchen,79.0,Food & Drinks,79.0,151.0
495,18.0,4.0,R-495,32.7476504,-117.2517133,2.0,20.0,18.0,gallagher's 1502,62.0,Only Drinks,59.0,140.0
496,2.0,16.0,R-496,32.747158,-117.1904928,13.0,3.0,12.0,la verdadera amistad,46.0,Only Food,59.0,147.0
497,4.0,18.0,R-497,32.5844619,-117.0842811,16.0,16.0,23.0,mariscos el jefe hollister,79.0,Food & Drinks,44.0,160.0
498,2.0,16.0,R-498,32.7487857,-117.151986,13.0,3.0,12.0,golden spoon,46.0,Only Food,59.0,152.0
499,4.0,18.0,R-499,32.7118971,-117.1333465,16.0,16.0,23.0,jamaica restaurant food rock steady,79.0,Food & Drinks,56.0,154.0
500,2.0,16.0,R-500,32.9610655,-117.0631658,13.0,3.0,12.0,zia quesadillas,46.0,Only Food,78.0,162.0
501,4.0,18.0,R-501,33.020259,-117.1240315,16.0,16.0,23.0,piacere mio,79.0,Food & Drinks,84.0,155.0
502,4.0,18.0,R-502,33.0182301,-117.0620331,16.0,16.0,23.0,le bistro de louisa,79.0,Food & Drinks,84.0,163.0
503,4.0,18.0,R-503,32.8330048,-117.1594891,16.0,16.0,23.0,ajisen ramen,79.0,Food & Drinks,67.0,151.0
504,4.0,18.0,R-504,32.815087,-117.219451,16.0,16.0,23.0,red card cafe,79.0,Food & Drinks,65.0,144.0
505,4.0,18.0,R-505,32.8206349,-117.1546101,16.0,16.0,23.0,dduriba,79.0,Food & Drinks,66.0,152.0
506,2.0,16.0,R-506,32.8788194,-117.1668889,13.0,3.0,12.0,ca burrito co,46.0,Only Food,71.0,150.0
507,18.0,4.0,R-507,32.7415478,-117.1303721,2.0,20.0,18.0,one door north,62.0,Only Drinks,58.0,154.0
508,4.0,18.0,R-508,32.584595,-117.0921504,16.0,16.0,23.0,ihop 3549,79.0,Food & Drinks,44.0,159.0
509,4.0,18.0,R-509,32.7957611,-117.2535018,16.0,16.0,23.0,pueblo,79.0,Food & Drinks,63.0,140.0
510,4.0,18.0,R-510,32.7974929,-117.2520386,16.0,16.0,23.0,kato sushi,79.0,Food & Drinks,63.0,140.0
511,2.0,16.0,R-511,32.9132478,-117.2262863,13.0,3.0,12.0,torrey gardens cafe,46.0,Only Food,74.0,143.0
512,2.0,16.0,R-512,32.748958,-117.11646,13.0,3.0,12.0,mi sonora querida,46.0,Only Food,59.0,156.0
513,4.0,18.0,R-513,32.7341831,-117.1604946,16.0,16.0,23.0,parc bistro brasserie,79.0,Food & Drinks,58.0,151.0
514,4.0,18.0,R-514,32.873417,-117.212405,16.0,16.0,23.0,red o la jolla llc,79.0,Food & Drinks,70.0,145.0
515,4.0,18.0,R-515,33.0242013,-117.0809376,16.0,16.0,23.0,phil's bbq,79.0,Food & Drinks,84.0,160.0
516,2.0,16.0,R-516,32.8206349,-117.1546101,13.0,3.0,12.0,bing haus,46.0,Only Food,66.0,152.0
517,2.0,16.0,R-517,32.9088918,-117.1487734,13.0,3.0,12.0,buzz & woodys ice cream planet,46.0,Only Food,74.0,152.0
518,18.0,4.0,R-518,32.7095342,-117.0639121,2.0,20.0,18.0,wings & fish,62.0,Only Drinks,55.0,162.0
519,4.0,18.0,R-519,32.7215165,-117.1685219,16.0,16.0,23.0,bar one,79.0,Food & Drinks,57.0,150.0
520,4.0,18.0,R-520,32.8249132,-117.1557172,16.0,16.0,23.0,pokirrito,79.0,Food & Drinks,66.0,151.0
521,2.0,16.0,R-521,32.695648,-117.129023,13.0,3.0,12.0,erky's ice cream,46.0,Only Food,54.0,155.0
522,18.0,4.0,R-522,32.697526,-117.139155,2.0,20.0,18.0,el huerto del barrio,62.0,Only Drinks,54.0,153.0
523,2.0,16.0,R-523,32.8673271,-117.2063622,13.0,3.0,12.0,poke utc,46.0,Only Food,70.0,145.0
524,4.0,18.0,R-524,32.7626731,-117.1417964,16.0,16.0,23.0,circa,79.0,Food & Drinks,60.0,153.0
525,4.0,18.0,R-525,32.7133445,-117.1604582,16.0,16.0,23.0,the red c lounge,79.0,Food & Drinks,56.0,151.0
526,4.0,18.0,R-526,32.7133445,-117.1604582,16.0,16.0,23.0,the red c lounge,79.0,Food & Drinks,56.0,151.0
527,4.0,18.0,R-527,32.9206753,-117.2170144,16.0,16.0,23.0,zip fusion sushi & grill,79.0,Food & Drinks,75.0,144.0
528,4.0,18.0,R-528,32.7401595,-117.2111954,16.0,16.0,23.0,mess hall,79.0,Food & Drinks,58.0,145.0
529,4.0,18.0,R-529,32.8193702,-117.1557277,16.0,16.0,23.0,shan xi magic kitchen llc,79.0,Food & Drinks,65.0,151.0
530,2.0,16.0,R-530,32.7548336,-117.1317354,13.0,3.0,12.0,subway #3303,46.0,Only Food,60.0,154.0
531,4.0,18.0,R-531,32.7430593,-117.0293623,16.0,16.0,23.0,lemon grove deli and grill inc,79.0,Food & Drinks,58.0,167.0
532,2.0,16.0,R-532,32.7537479,-117.1490445,13.0,3.0,12.0,gorditas con sabor,46.0,Only Food,59.0,152.0
533,2.0,16.0,R-533,32.7565174,-117.0872582,13.0,3.0,12.0,shekinh's bakery & restaurant,46.0,Only Food,60.0,160.0
534,2.0,16.0,R-534,32.7080457,-117.1483137,13.0,3.0,12.0,eudells hot dogs cart,46.0,Only Food,55.0,152.0
535,4.0,18.0,R-535,32.8243229,-117.1557562,16.0,16.0,23.0,prime grill,79.0,Food & Drinks,66.0,151.0
536,2.0,16.0,R-536,32.7156905,-117.137999,13.0,3.0,12.0,26th kitchen & carry,46.0,Only Food,56.0,154.0
537,18.0,4.0,R-537,32.7746215,-117.1560342,2.0,20.0,18.0,grater grilled cheese bistro,62.0,Only Drinks,61.0,151.0
538,4.0,18.0,R-538,33.1292816,-117.1654698,16.0,16.0,23.0,chef s pho and grill,79.0,Food & Drinks,94.0,150.0
539,4.0,18.0,R-539,32.7556063,-117.133111,16.0,16.0,23.0,pho royal inc,79.0,Food & Drinks,60.0,154.0
540,4.0,18.0,R-540,32.6760919,-117.0646958,16.0,16.0,23.0,los tapatios #2 mexican food,79.0,Food & Drinks,52.0,162.0
541,2.0,16.0,R-541,32.8673271,-117.2063622,13.0,3.0,12.0,flippin pizza,46.0,Only Food,70.0,145.0
542,4.0,18.0,R-542,32.8212614,-117.1559382,16.0,16.0,23.0,char house saigon grill  pho,79.0,Food & Drinks,66.0,151.0
543,2.0,16.0,R-543,33.0167446,-117.0921471,13.0,3.0,12.0,culinart of california inc,46.0,Only Food,84.0,159.0
544,2.0,16.0,R-544,32.6963327,-117.1329113,13.0,3.0,12.0,yogurtland ca310,46.0,Only Food,54.0,154.0
545,4.0,18.0,R-545,32.7493446,-117.1286577,16.0,16.0,23.0,north park diner,79.0,Food & Drinks,59.0,155.0
546,2.0,16.0,R-546,32.7706632,-117.1826565,13.0,3.0,12.0,whey2go  mobile protein bar,46.0,Only Food,61.0,148.0
547,4.0,18.0,R-547,32.7437877,-117.2486672,16.0,16.0,23.0,thai time bistro,79.0,Food & Drinks,59.0,140.0
548,2.0,16.0,R-548,32.9377392,-117.1010271,13.0,3.0,12.0,santanas mexican food,46.0,Only Food,76.0,158.0
549,2.0,16.0,R-549,32.76477,-117.1965909,13.0,3.0,12.0,tgh enterprises llc,46.0,Only Food,60.0,147.0
550,2.0,16.0,R-550,32.7550067,-117.1067275,13.0,3.0,12.0,cali cafe and hookah lounge,46.0,Only Food,60.0,157.0
551,4.0,18.0,R-551,32.8928818,-117.1182943,16.0,16.0,23.0,chun s seafood & grill ,79.0,Food & Drinks,72.0,156.0
552,18.0,4.0,R-552,32.5746973,-117.0670287,2.0,20.0,18.0,luzitas taco shop,62.0,Only Drinks,43.0,162.0
553,18.0,4.0,R-553,32.9125852,-117.1446314,2.0,20.0,18.0,85 c bakery cafe,62.0,Only Drinks,74.0,153.0
554,18.0,4.0,R-554,32.5554085,-116.9411733,2.0,20.0,18.0,mariscos y comida mexicana el guero 2,62.0,Only Drinks,41.0,177.0
555,2.0,16.0,R-555,32.7414202,-117.1793023,13.0,3.0,12.0,pizza e birra,46.0,Only Food,58.0,149.0
556,2.0,16.0,R-556,32.7840579,-117.0602634,13.0,3.0,12.0,rita's del cerro,46.0,Only Food,62.0,163.0
557,2.0,16.0,R-557,32.5477955,-117.0347324,13.0,3.0,12.0,cafeto ams,46.0,Only Food,41.0,166.0
558,4.0,18.0,R-558,32.7751417,-117.1396452,16.0,16.0,23.0,san diego marriott mission valley,79.0,Food & Drinks,61.0,153.0
559,18.0,4.0,R-559,32.8108195,-117.1160164,2.0,20.0,18.0,sizzler usa restaurants inc #891,62.0,Only Drinks,65.0,156.0
560,2.0,16.0,R-560,32.642979,-116.989748,13.0,3.0,12.0,seoul man food truck,46.0,Only Food,49.0,171.0
561,2.0,16.0,R-561,32.7563,-117.1016642,13.0,3.0,12.0,shiraz cafe,46.0,Only Food,60.0,158.0
562,4.0,18.0,R-562,32.904327,-117.239431,16.0,16.0,23.0,farmer and the seahorse,79.0,Food & Drinks,73.0,141.0
563,2.0,16.0,R-563,32.7932745,-117.0587153,13.0,3.0,12.0,fully loaded micro juicery,46.0,Only Food,63.0,163.0
564,4.0,18.0,R-564,32.914735,-117.146079,16.0,16.0,23.0,crab hut,79.0,Food & Drinks,74.0,153.0
565,4.0,18.0,R-565,32.8935192,-117.2383,16.0,16.0,23.0,green acre nautilus,79.0,Food & Drinks,72.0,142.0
566,18.0,4.0,R-566,32.8322501,-117.1212279,2.0,20.0,18.0,long island mike's pizza,62.0,Only Drinks,67.0,156.0
567,4.0,18.0,R-567,32.9174121,-117.1276954,16.0,16.0,23.0,mama cinia rice & noodles inc,79.0,Food & Drinks,74.0,155.0
568,2.0,16.0,R-568,32.9070368,-117.1723359,13.0,3.0,12.0,waba grill san diego mira mesa,46.0,Only Food,74.0,149.0
569,2.0,16.0,R-569,32.7472212,-117.1612562,13.0,3.0,12.0,robertos restaurants inc,46.0,Only Food,59.0,151.0
570,2.0,16.0,R-570,32.8862314,-117.1489479,13.0,3.0,12.0,facchini's,46.0,Only Food,72.0,152.0
571,4.0,18.0,R-571,32.7484328,-117.1631024,16.0,16.0,23.0,clandestino,79.0,Food & Drinks,59.0,151.0
572,4.0,18.0,R-572,32.962348,-117.1887893,16.0,16.0,23.0,west root,79.0,Food & Drinks,79.0,147.0
573,4.0,18.0,R-573,32.7410058,-117.163807,16.0,16.0,23.0,royal stone,79.0,Food & Drinks,58.0,150.0
574,18.0,4.0,R-574,32.9027166,-117.1147786,2.0,20.0,18.0,subway 48199,62.0,Only Drinks,73.0,156.0
575,18.0,4.0,R-575,32.7134748,-117.1604415,2.0,20.0,18.0,the tipsy crow,62.0,Only Drinks,56.0,151.0
576,4.0,18.0,R-576,32.7690146,-117.0521599,16.0,16.0,23.0,gerlandos pizzeria,79.0,Food & Drinks,61.0,164.0
577,2.0,16.0,R-577,32.9144517,-117.1460011,13.0,3.0,12.0,pokeland,46.0,Only Food,74.0,153.0
578,2.0,16.0,R-578,32.8296467,-117.1411865,13.0,3.0,12.0,sonic drive-in,46.0,Only Food,66.0,153.0
579,4.0,18.0,R-579,32.7973377,-117.2514273,16.0,16.0,23.0,pb pho & grill,79.0,Food & Drinks,63.0,140.0
580,4.0,18.0,R-580,32.7374877,-117.0790474,16.0,16.0,23.0,tuk tuk thai restaurant,79.0,Food & Drinks,58.0,161.0
581,18.0,4.0,R-581,32.8258759,-117.1542011,2.0,20.0,18.0,cake de partie,62.0,Only Drinks,66.0,152.0
582,2.0,16.0,R-582,32.6473788,-117.0773449,13.0,3.0,12.0,nitro monkey coffee,46.0,Only Food,50.0,161.0
583,4.0,18.0,R-583,32.8146899,-117.154474,16.0,16.0,23.0,mekong lao thai cuisine,79.0,Food & Drinks,65.0,152.0
584,4.0,18.0,R-584,32.9774518,-117.0828315,16.0,16.0,23.0,cafe luna,79.0,Food & Drinks,80.0,160.0
585,4.0,18.0,R-585,32.7129968,-117.1603711,16.0,16.0,23.0,asti ristorante,79.0,Food & Drinks,56.0,151.0
586,2.0,16.0,R-586,33.0658924,-117.2657419,13.0,3.0,12.0,surf dawgz catering,46.0,Only Food,88.0,138.0
587,4.0,18.0,R-587,32.715988,-117.155326,16.0,16.0,23.0,himalayan dine inn,79.0,Food & Drinks,56.0,151.0
588,2.0,16.0,R-588,32.9178945,-117.1234323,13.0,3.0,12.0,ny giant pizza,46.0,Only Food,75.0,155.0
589,2.0,16.0,R-589,32.9169171,-117.1231965,13.0,3.0,12.0,lucky donuts & deli,46.0,Only Food,74.0,155.0
590,18.0,4.0,R-590,32.7472212,-117.2519744,2.0,20.0,18.0,ocean beach brewery,62.0,Only Drinks,59.0,140.0
591,4.0,18.0,R-591,32.7727811,-117.2511546,16.0,16.0,23.0,wlm food corp,79.0,Food & Drinks,61.0,140.0
592,2.0,16.0,R-592,32.7828766,-117.1723128,13.0,3.0,12.0,taco time,46.0,Only Food,62.0,149.0
593,2.0,16.0,R-593,32.928138,-117.1635856,13.0,3.0,12.0,smoothie rider,46.0,Only Food,75.0,150.0
594,4.0,18.0,R-594,32.7922191,-117.0989102,16.0,16.0,23.0,saigon star restaurant,79.0,Food & Drinks,63.0,158.0
595,4.0,18.0,R-595,32.7009098,-117.1245383,16.0,16.0,23.0,antojitos mexicanos la tia,79.0,Food & Drinks,55.0,155.0
596,2.0,16.0,R-596,32.8217083,-117.1264503,13.0,3.0,12.0,cibao cafe,46.0,Only Food,66.0,155.0
597,18.0,4.0,R-597,32.7485686,-117.1607796,2.0,20.0,18.0,saigon on fifth,62.0,Only Drinks,59.0,151.0
598,4.0,18.0,R-598,32.7026021,-117.1355485,16.0,16.0,23.0,mamas kitchen,79.0,Food & Drinks,55.0,154.0
599,2.0,16.0,R-599,32.7449639,-117.1855424,13.0,3.0,12.0,las brasas taco shop,46.0,Only Food,59.0,148.0
600,2.0,16.0,R-600,32.7913769,-117.2550395,13.0,3.0,12.0,mission burger,46.0,Only Food,63.0,140.0
601,4.0,18.0,R-601,32.7240889,-117.1885683,16.0,16.0,23.0,coasterra,79.0,Food & Drinks,57.0,147.0
602,4.0,18.0,R-602,32.7133445,-117.1604582,16.0,16.0,23.0,myst lounge,79.0,Food & Drinks,56.0,151.0
603,2.0,16.0,R-603,32.7529023,-117.2461532,13.0,3.0,12.0,val's coffee corner,46.0,Only Food,59.0,141.0
604,18.0,4.0,R-604,32.8108195,-117.1160164,2.0,20.0,18.0,obis sushi,62.0,Only Drinks,65.0,156.0
605,2.0,16.0,R-605,33.018251,-117.073337,13.0,3.0,12.0,starbucks coffee 587,46.0,Only Food,84.0,161.0
606,4.0,18.0,R-606,32.7562929,-117.0936906,16.0,16.0,23.0,hoai hue vietnamese restaurant,79.0,Food & Drinks,60.0,159.0
607,2.0,16.0,R-607,32.5765765,-117.0943513,13.0,3.0,12.0,oasis ice cream,46.0,Only Food,43.0,159.0
608,2.0,16.0,R-608,32.9643037,-117.1894048,13.0,3.0,12.0,acai by cael,46.0,Only Food,79.0,147.0
609,4.0,18.0,R-609,32.8377735,-117.2783578,16.0,16.0,23.0,carino's italian restaurant,79.0,Food & Drinks,67.0,137.0
610,4.0,18.0,R-610,32.8146899,-117.154474,16.0,16.0,23.0,boiling passion,79.0,Food & Drinks,65.0,152.0
611,2.0,16.0,R-611,32.8306952,-117.1277878,13.0,3.0,12.0,waba grill san diego clairemont mesa,46.0,Only Food,67.0,155.0
612,2.0,16.0,R-612,32.7992922,-117.2440832,13.0,3.0,12.0,hammonds gourmet ice cream,46.0,Only Food,64.0,141.0
613,4.0,18.0,R-613,32.7418187,-117.1601897,16.0,16.0,23.0,spitz san diego,79.0,Food & Drinks,58.0,151.0
614,4.0,18.0,R-614,32.7826846,-117.2527417,16.0,16.0,23.0,miss bs coconut club,79.0,Food & Drinks,62.0,140.0
615,2.0,16.0,R-615,32.729399,-117.0631961,13.0,3.0,12.0,giant pizza king #18,46.0,Only Food,57.0,162.0
616,4.0,18.0,R-616,32.904327,-117.239431,16.0,16.0,23.0,farmer & the seahorse,79.0,Food & Drinks,73.0,141.0
617,4.0,18.0,R-617,32.6990951,-117.1460615,16.0,16.0,23.0,mariscos el pulpo ii,79.0,Food & Drinks,54.0,153.0
618,2.0,16.0,R-618,32.8403483,-117.1265806,13.0,3.0,12.0,cafe cravings 101,46.0,Only Food,67.0,155.0
619,18.0,4.0,R-619,32.9208011,-117.2144504,2.0,20.0,18.0,starbucks #9868,62.0,Only Drinks,75.0,144.0
620,18.0,4.0,R-620,32.9659291,-117.0891103,2.0,20.0,18.0,starbucks coffee #20387,62.0,Only Drinks,79.0,159.0
621,2.0,16.0,R-621,32.9030189,-117.099923,13.0,3.0,12.0,consuelo's authentic mexican food,46.0,Only Food,73.0,158.0
622,18.0,4.0,R-622,32.766955,-117.058386,2.0,20.0,18.0,duet coffee,62.0,Only Drinks,61.0,163.0
623,2.0,16.0,R-623,32.7065827,-117.1333253,13.0,3.0,12.0,las morelianas inc,46.0,Only Food,55.0,154.0
624,18.0,4.0,R-624,32.8249132,-117.1557172,2.0,20.0,18.0,pokirrito,62.0,Only Drinks,66.0,151.0
625,18.0,4.0,R-625,32.7970508,-117.2545504,2.0,20.0,18.0,860 garnet operations llc,62.0,Only Drinks,63.0,140.0
626,4.0,18.0,R-626,32.7148311,-117.1589917,16.0,16.0,23.0,cedar of lebanon,79.0,Food & Drinks,56.0,151.0
627,18.0,4.0,R-627,32.7616842,-117.0645839,2.0,20.0,18.0,mirch masala 2 go,62.0,Only Drinks,60.0,162.0
628,2.0,16.0,R-628,32.7983254,-117.2458029,13.0,3.0,12.0,ortiz s taco shop 2,46.0,Only Food,64.0,141.0
629,4.0,18.0,R-629,32.76477,-117.1965909,16.0,16.0,23.0,pho kitchen,79.0,Food & Drinks,60.0,147.0
630,4.0,18.0,R-630,32.6931999,-117.132652,16.0,16.0,23.0,harborside thai,79.0,Food & Drinks,54.0,154.0
631,4.0,18.0,R-631,32.715738,-117.1610838,16.0,16.0,23.0,havana grill,79.0,Food & Drinks,56.0,151.0
632,2.0,16.0,R-632,32.71456,-117.1603595,13.0,3.0,12.0,tony's pizza,46.0,Only Food,56.0,151.0
633,2.0,16.0,R-633,33.1433661,-117.0814415,13.0,3.0,12.0,yoyo bento,46.0,Only Food,95.0,160.0
634,2.0,16.0,R-634,32.7018856,-117.0850909,13.0,3.0,12.0,tasty hot dog and snacks,46.0,Only Food,55.0,160.0
635,2.0,16.0,R-635,32.5755136,-117.0476561,13.0,3.0,12.0,fish n things,46.0,Only Food,43.0,164.0
636,4.0,18.0,R-636,32.9527471,-117.2319121,16.0,16.0,23.0,champagne french bakery cafe,79.0,Food & Drinks,78.0,142.0
637,4.0,18.0,R-637,32.9817035,-117.0748854,16.0,16.0,23.0,champagne french bakery cafe,79.0,Food & Drinks,80.0,161.0
638,2.0,16.0,R-638,32.8295667,-117.1648868,13.0,3.0,12.0,burger king restaurant,46.0,Only Food,66.0,150.0
639,4.0,18.0,R-639,32.7447242,-117.160098,16.0,16.0,23.0,the brew project,79.0,Food & Drinks,59.0,151.0
640,4.0,18.0,R-640,32.7106427,-117.1700038,16.0,16.0,23.0,eddie v's #8514,79.0,Food & Drinks,56.0,150.0
641,4.0,18.0,R-641,32.7106427,-117.1700038,16.0,16.0,23.0,season's 52 #4541,79.0,Food & Drinks,56.0,150.0
642,4.0,18.0,R-642,32.8723957,-117.2092816,16.0,16.0,23.0,season's 52 #4529,79.0,Food & Drinks,70.0,145.0
643,4.0,18.0,R-643,32.8493903,-117.2709684,16.0,16.0,23.0,eddie v's #8511,79.0,Food & Drinks,68.0,138.0
644,2.0,16.0,R-644,32.7490289,-117.099558,13.0,3.0,12.0,waba grill san diego state university,46.0,Only Food,59.0,158.0
645,2.0,16.0,R-645,32.7484823,-117.1612856,13.0,3.0,12.0,subterranean coffee boutique,46.0,Only Food,59.0,151.0
646,2.0,16.0,R-646,32.8863508,-117.2150499,13.0,3.0,12.0,ub cafeteria,46.0,Only Food,72.0,144.0
647,2.0,16.0,R-647,32.8957699,-117.2315758,13.0,3.0,12.0,wich addiction,46.0,Only Food,72.0,142.0
648,18.0,4.0,R-648,32.7114468,-117.140012,2.0,20.0,18.0,garlic shack,62.0,Only Drinks,56.0,153.0
649,18.0,4.0,R-649,32.7987046,-117.2446948,2.0,20.0,18.0,vallarta mexican express eatery,62.0,Only Drinks,64.0,141.0
650,2.0,16.0,R-650,32.7165703,-117.1609143,13.0,3.0,12.0,pizza etz,46.0,Only Food,56.0,151.0
651,2.0,16.0,R-651,32.961671,-117.189898,13.0,3.0,12.0,vitality tap,46.0,Only Food,79.0,147.0
652,18.0,4.0,R-652,32.8260274,-117.1580845,2.0,20.0,18.0,amanda n leath ,62.0,Only Drinks,66.0,151.0
653,2.0,16.0,R-653,32.7090349,-117.0865907,13.0,3.0,12.0,tenancingo llc,46.0,Only Food,55.0,160.0
654,2.0,16.0,R-654,32.9384366,-117.23046,13.0,3.0,12.0,papa johns pizza,46.0,Only Food,76.0,142.0
655,2.0,16.0,R-655,32.791247,-117.2536487,13.0,3.0,12.0,the blend superfood bar llc,46.0,Only Food,63.0,140.0
656,2.0,16.0,R-656,32.854477,-116.996546,13.0,3.0,12.0,bite mi express,46.0,Only Food,69.0,170.0
657,18.0,4.0,R-657,32.7150517,-117.1608535,2.0,20.0,18.0,bassmnt nightclub,62.0,Only Drinks,56.0,151.0
658,2.0,16.0,R-658,32.9148893,-117.1301538,13.0,3.0,12.0,ba le sandwich & food to go,46.0,Only Food,74.0,154.0
659,4.0,18.0,R-659,32.7482462,-117.1508182,16.0,16.0,23.0,akinori sushi,79.0,Food & Drinks,59.0,152.0
660,4.0,18.0,R-660,32.9146616,-117.1140924,16.0,16.0,23.0,gyu kaku restaurant,79.0,Food & Drinks,74.0,156.0
661,4.0,18.0,R-661,32.7527784,-117.0638792,16.0,16.0,23.0,island spice jamaican restaurant llc,79.0,Food & Drinks,59.0,162.0
662,2.0,16.0,R-662,32.770863,-117.2521057,13.0,3.0,12.0,dw food services llc,46.0,Only Food,61.0,140.0
663,18.0,4.0,R-663,32.8866369,-117.1571476,2.0,20.0,18.0,pure project llc,62.0,Only Drinks,72.0,151.0
664,18.0,4.0,R-664,32.7978513,-117.2483834,2.0,20.0,18.0,moonshine beach & cerveza jacks,62.0,Only Drinks,64.0,140.0
665,2.0,16.0,R-665,32.5590174,-117.044851,13.0,3.0,12.0,el sabroso taco shop,46.0,Only Food,42.0,165.0
666,2.0,16.0,R-666,32.821269,-117.0994993,13.0,3.0,12.0,heavenly yogurt,46.0,Only Food,66.0,158.0
667,4.0,18.0,R-667,32.7501398,-117.1653622,16.0,16.0,23.0,jack in the box,79.0,Food & Drinks,59.0,150.0
668,2.0,16.0,R-668,32.7714194,-117.0736738,13.0,3.0,12.0,just sushi to go,46.0,Only Food,61.0,161.0
669,2.0,16.0,R-669,32.6725858,-117.1099456,13.0,3.0,12.0,zain & taim ice cream,46.0,Only Food,52.0,157.0
670,4.0,18.0,R-670,32.8268733,-117.1551371,16.0,16.0,23.0,tasty pot,79.0,Food & Drinks,66.0,151.0
671,4.0,18.0,R-671,32.7585916,-117.075723,16.0,16.0,23.0,xo  restaurant & bar,79.0,Food & Drinks,60.0,161.0
672,2.0,16.0,R-672,32.7184861,-117.1621729,13.0,3.0,12.0,via pia,46.0,Only Food,56.0,151.0
673,2.0,16.0,R-673,32.7771687,-117.2520487,13.0,3.0,12.0,nv personal dining,46.0,Only Food,62.0,140.0
674,2.0,16.0,R-674,32.7481966,-117.1392163,13.0,3.0,12.0,communal coffee,46.0,Only Food,59.0,153.0
675,4.0,18.0,R-675,32.8028385,-117.1392237,16.0,16.0,23.0,kokoro restaurant,79.0,Food & Drinks,64.0,153.0
676,2.0,16.0,R-676,32.9615089,-117.1903617,13.0,3.0,12.0,nothing bundt cakes,46.0,Only Food,79.0,147.0
677,2.0,16.0,R-677,32.5503443,-117.0444712,13.0,3.0,12.0,fruiteria el tigre,46.0,Only Food,41.0,165.0
678,2.0,16.0,R-678,32.8306952,-117.1277878,13.0,3.0,12.0,waba grill san diego clairemont mesa,46.0,Only Food,67.0,155.0
679,2.0,16.0,R-679,32.7589172,-117.0733556,13.0,3.0,12.0,ackee tree the real jamaican cuisine,46.0,Only Food,60.0,161.0
680,2.0,16.0,R-680,32.7491735,-117.1062006,13.0,3.0,12.0,saigon sandwich & deli,46.0,Only Food,59.0,157.0
681,2.0,16.0,R-681,32.9828696,-117.0742328,13.0,3.0,12.0,dragon chinese restaurant,46.0,Only Food,80.0,161.0
682,2.0,16.0,R-682,32.8284352,-117.1256224,13.0,3.0,12.0,the thai burger company,46.0,Only Food,66.0,155.0
683,2.0,16.0,R-683,32.7110962,-117.1607346,13.0,3.0,12.0,gaslamp cafe & lounge,46.0,Only Food,56.0,151.0
684,2.0,16.0,R-684,32.8395654,-117.2778042,13.0,3.0,12.0,jack in the box  57,46.0,Only Food,67.0,137.0
685,2.0,16.0,R-685,32.7495864,-117.1133146,13.0,3.0,12.0,sabores colombianos,46.0,Only Food,59.0,156.0
686,2.0,16.0,R-686,32.7548111,-117.161693,13.0,3.0,12.0,papas locas food trucks,46.0,Only Food,60.0,151.0
687,2.0,16.0,R-687,32.7671886,-117.0577108,13.0,3.0,12.0,two brothers restaurant inc,46.0,Only Food,61.0,163.0
688,4.0,18.0,R-688,32.7095913,-117.1530618,16.0,16.0,23.0,the mission east village,79.0,Food & Drinks,55.0,152.0
689,18.0,4.0,R-689,32.7334052,-117.2265763,2.0,20.0,18.0,felipe oliveira ,62.0,Only Drinks,58.0,143.0
690,18.0,4.0,R-690,32.7527501,-117.1319065,2.0,20.0,18.0,connie j jakubowski ,62.0,Only Drinks,59.0,154.0
691,4.0,18.0,R-691,32.7612449,-117.0666496,16.0,16.0,23.0,chipotle mexican  grill 2302,79.0,Food & Drinks,60.0,162.0
692,4.0,18.0,R-692,32.7000948,-117.1446204,16.0,16.0,23.0,cook mishmash,79.0,Food & Drinks,55.0,153.0
693,2.0,16.0,R-693,32.5508057,-117.0382301,13.0,3.0,12.0,los carbones taco shop,46.0,Only Food,41.0,165.0
694,2.0,16.0,R-694,32.7987042,-117.2563842,13.0,3.0,12.0,dirty birds,46.0,Only Food,64.0,139.0
695,2.0,16.0,R-695,32.8395946,-117.2757514,13.0,3.0,12.0,cafe milano,46.0,Only Food,67.0,137.0
696,2.0,16.0,R-696,32.8314173,-117.1550676,13.0,3.0,12.0,pig's house,46.0,Only Food,67.0,152.0
697,4.0,18.0,R-697,32.7410951,-117.2110302,16.0,16.0,23.0,fireside by the patio,79.0,Food & Drinks,58.0,145.0
698,4.0,18.0,R-698,32.8014876,-117.1571993,16.0,16.0,23.0,buffalo wing star,79.0,Food & Drinks,64.0,151.0
699,2.0,16.0,R-699,32.840173,-117.0985316,13.0,3.0,12.0,industrial grind coffee,46.0,Only Food,67.0,158.0
700,2.0,16.0,R-700,32.7913197,-117.2544418,13.0,3.0,12.0,dolce italian ice,46.0,Only Food,63.0,140.0
701,2.0,16.0,R-701,32.8544223,-116.8487616,13.0,3.0,12.0,kelley corn,46.0,Only Food,69.0,188.0
702,2.0,16.0,R-702,32.7708858,-117.1492792,13.0,3.0,12.0,capriotti's sandwich shop,46.0,Only Food,61.0,152.0
703,4.0,18.0,R-703,32.7459079,-117.210554,16.0,16.0,23.0,kabob village mediterranean & persian restaurant,79.0,Food & Drinks,59.0,145.0
704,2.0,16.0,R-704,32.751891,-117.232351,13.0,3.0,12.0,japanese authentic palate in a box,46.0,Only Food,59.0,142.0
705,2.0,16.0,R-705,32.7240732,-117.0832634,13.0,3.0,12.0,fruteria la michoacana,46.0,Only Food,57.0,160.0
706,18.0,4.0,R-706,32.773785,-117.1429972,2.0,20.0,18.0,the remedy,62.0,Only Drinks,61.0,153.0
707,4.0,18.0,R-707,32.7485917,-117.1599104,16.0,16.0,23.0,rakitori,79.0,Food & Drinks,59.0,151.0
708,4.0,18.0,R-708,32.8492767,-117.2724629,16.0,16.0,23.0,duke's la jolla,79.0,Food & Drinks,68.0,137.0
709,2.0,16.0,R-709,32.9129712,-117.148547,13.0,3.0,12.0,firehouse subs,46.0,Only Food,74.0,152.0
710,4.0,18.0,R-710,32.798193,-117.2494251,16.0,16.0,23.0,zen 5 sushi,79.0,Food & Drinks,64.0,140.0
711,18.0,4.0,R-711,33.0115515,-117.0787561,2.0,20.0,18.0,rb sushi 1 inc,62.0,Only Drinks,83.0,161.0
712,18.0,4.0,R-712,33.0149683,-117.1100607,2.0,20.0,18.0,4s pizzeria llc,62.0,Only Drinks,83.0,157.0
713,18.0,4.0,R-713,32.9138168,-117.1682331,2.0,20.0,18.0,issara inc,62.0,Only Drinks,74.0,150.0
714,4.0,18.0,R-714,32.9619726,-117.1541906,16.0,16.0,23.0,bt's southern bbq,79.0,Food & Drinks,79.0,152.0
715,4.0,18.0,R-715,32.7606538,-117.0679826,16.0,16.0,23.0,crab pub,79.0,Food & Drinks,60.0,162.0
716,2.0,16.0,R-716,33.197253,-117.227705,13.0,3.0,12.0,aybertos mexican food,46.0,Only Food,100.0,143.0
717,4.0,18.0,R-717,32.693264,-117.1257363,16.0,16.0,23.0,sunnys pizza,79.0,Food & Drinks,54.0,155.0
718,18.0,4.0,R-718,32.7092215,-117.1570863,2.0,20.0,18.0,social tap san diego llc,62.0,Only Drinks,55.0,151.0
719,2.0,16.0,R-719,32.8535757,-116.9311339,13.0,3.0,12.0,austin creams,46.0,Only Food,69.0,178.0
720,2.0,16.0,R-720,32.7913769,-117.2550395,13.0,3.0,12.0,tacos el gordo,46.0,Only Food,63.0,140.0
721,2.0,16.0,R-721,32.8956309,-117.2423869,13.0,3.0,12.0,cafe fusion incorporated,46.0,Only Food,72.0,141.0
722,2.0,16.0,R-722,32.7134425,-117.1571739,13.0,3.0,12.0,big thyme sandwich company,46.0,Only Food,56.0,151.0
723,4.0,18.0,R-723,32.7486875,-117.1342484,16.0,16.0,23.0,breakfast republic,79.0,Food & Drinks,59.0,154.0
724,2.0,16.0,R-724,32.7437038,-117.234789,13.0,3.0,12.0,coffee bean & tea leaf #357,46.0,Only Food,59.0,142.0
725,2.0,16.0,R-725,32.7481744,-117.1311711,13.0,3.0,12.0,starbucks #9735,46.0,Only Food,59.0,154.0
726,18.0,4.0,R-726,32.7091137,-117.1629201,2.0,20.0,18.0,striders,62.0,Only Drinks,55.0,151.0
727,2.0,16.0,R-727,32.755142,-117.0549906,13.0,3.0,12.0,burritos santana,46.0,Only Food,60.0,163.0
728,2.0,16.0,R-728,32.5507933,-117.038169,13.0,3.0,12.0,mcdonalds restaurant #6647,46.0,Only Food,41.0,165.0
729,2.0,16.0,R-729,32.7407407,-117.1295058,13.0,3.0,12.0,pete's seafood and sandwich,46.0,Only Food,58.0,155.0
730,2.0,16.0,R-730,32.742592,-117.129782,13.0,3.0,12.0,wow wow waffle san diego llc,46.0,Only Food,58.0,155.0
731,4.0,18.0,R-731,32.7550408,-117.1378462,16.0,16.0,23.0,denny's,79.0,Food & Drinks,60.0,154.0
732,2.0,16.0,R-732,32.7635954,-117.1186605,13.0,3.0,12.0,rolbertos taco shop,46.0,Only Food,60.0,156.0
733,2.0,16.0,R-733,32.763594,-117.1188176,13.0,3.0,12.0,tams thailand food,46.0,Only Food,60.0,156.0
734,2.0,16.0,R-734,32.9109736,-117.1475394,13.0,3.0,12.0,sayulita's mexican food,46.0,Only Food,74.0,152.0
735,2.0,16.0,R-735,32.8489118,-117.2729026,13.0,3.0,12.0,haagen dazs ice cream,46.0,Only Food,68.0,137.0
736,18.0,4.0,R-736,32.9006035,-117.1933225,2.0,20.0,18.0,maxis luncheonette,62.0,Only Drinks,73.0,147.0
737,18.0,4.0,R-737,32.8856994,-117.1702224,2.0,20.0,18.0,st tropez breads and deserts,62.0,Only Drinks,72.0,150.0
738,18.0,4.0,R-738,32.799509,-117.216736,2.0,20.0,18.0,missin bay players club & wine deck,62.0,Only Drinks,64.0,144.0
739,2.0,16.0,R-739,32.9485399,-117.0970904,13.0,3.0,12.0,papa john's pizza #2256,46.0,Only Food,77.0,158.0
740,2.0,16.0,R-740,32.9116407,-117.1435876,13.0,3.0,12.0,papa john's pizza #1337,46.0,Only Food,74.0,153.0
741,2.0,16.0,R-741,32.7491884,-117.1518196,13.0,3.0,12.0,papa john's pizza #1334,46.0,Only Food,59.0,152.0
742,2.0,16.0,R-742,32.8617658,-117.2233365,13.0,3.0,12.0,papa john's pizza #4398,46.0,Only Food,69.0,143.0
743,2.0,16.0,R-743,32.7552439,-117.2223152,13.0,3.0,12.0,papa johns pizza #2341,46.0,Only Food,60.0,143.0
744,2.0,16.0,R-744,32.817191,-117.18021,13.0,3.0,12.0,papa johns pizza #2342,46.0,Only Food,65.0,148.0
745,2.0,16.0,R-745,32.8096044,-117.1153906,13.0,3.0,12.0,papa johns pizza #2928,46.0,Only Food,65.0,156.0
746,2.0,16.0,R-746,32.7682247,-117.0487867,13.0,3.0,12.0,papa johns pizza #1338,46.0,Only Food,61.0,164.0
747,2.0,16.0,R-747,32.7608127,-117.0658437,13.0,3.0,12.0,don roman taco shop,46.0,Only Food,60.0,162.0
748,2.0,16.0,R-748,32.5438314,-117.0408468,13.0,3.0,12.0,charley s philly steaks,46.0,Only Food,40.0,165.0
749,2.0,16.0,R-749,33.0179031,-117.0620252,13.0,3.0,12.0,papa john's pizza #1979,46.0,Only Food,84.0,163.0
750,2.0,16.0,R-750,32.8027931,-117.0116678,13.0,3.0,12.0,papa johns pizza #1598,46.0,Only Food,64.0,169.0
751,2.0,16.0,R-751,32.5840227,-117.0844644,13.0,3.0,12.0,papa john's pizza #1339,46.0,Only Food,44.0,160.0
752,18.0,4.0,R-752,32.799254,-117.241978,2.0,20.0,18.0,caffe bella italia,62.0,Only Drinks,64.0,141.0
753,4.0,18.0,R-753,32.7441896,-117.1913574,16.0,16.0,23.0,little italy pizzaria pasta,79.0,Food & Drinks,59.0,147.0
754,2.0,16.0,R-754,32.8712569,-117.2097355,13.0,3.0,12.0,pressed juicery,46.0,Only Food,70.0,145.0
755,2.0,16.0,R-755,32.7106545,-117.1598792,13.0,3.0,12.0,gelato & chocolate factory,46.0,Only Food,56.0,151.0
756,4.0,18.0,R-756,32.7541266,-117.2159668,16.0,16.0,23.0,garden bistro & bar,79.0,Food & Drinks,60.0,144.0
757,2.0,16.0,R-757,32.7112954,-117.1043979,13.0,3.0,12.0,taste of chicago grill,46.0,Only Food,56.0,158.0
758,2.0,16.0,R-758,32.6887676,-117.1038107,13.0,3.0,12.0,la esquinita mexican food,46.0,Only Food,54.0,158.0
759,2.0,16.0,R-759,32.7085718,-117.086656,13.0,3.0,12.0,subway,46.0,Only Food,55.0,160.0
760,4.0,18.0,R-760,32.7172361,-117.1589728,16.0,16.0,23.0,ramaki,79.0,Food & Drinks,56.0,151.0
761,4.0,18.0,R-761,32.7395682,-117.2285152,16.0,16.0,23.0,the venetian rest inc,79.0,Food & Drinks,58.0,143.0
762,18.0,4.0,R-762,32.7490553,-117.1601858,2.0,20.0,18.0,rb sushi 3 inc,62.0,Only Drinks,59.0,151.0
763,18.0,4.0,R-763,32.710985,-117.1598344,2.0,20.0,18.0,rustic root / don chido,62.0,Only Drinks,56.0,151.0
764,2.0,16.0,R-764,32.9333528,-117.1035097,13.0,3.0,12.0,stockpot baked goods,46.0,Only Food,76.0,158.0
765,4.0,18.0,R-765,32.832464,-117.1272925,16.0,16.0,23.0,khan's cave grill & tavern,79.0,Food & Drinks,67.0,155.0
766,2.0,16.0,R-766,32.8222352,-117.1363581,13.0,3.0,12.0,adrians cafe,46.0,Only Food,66.0,154.0
767,2.0,16.0,R-767,32.8722033,-117.2175798,13.0,3.0,12.0,rubicon deli,46.0,Only Food,70.0,144.0
768,2.0,16.0,R-768,32.8336074,-117.1608084,13.0,3.0,12.0,arasi us inc,46.0,Only Food,67.0,151.0
769,4.0,18.0,R-769,32.8263117,-117.1552261,16.0,16.0,23.0,green china grill corporation,79.0,Food & Drinks,66.0,151.0
770,2.0,16.0,R-770,32.9929474,-117.0928586,13.0,3.0,12.0,kona ice central north county sd,46.0,Only Food,81.0,159.0
771,4.0,18.0,R-771,32.8707347,-117.2241011,16.0,16.0,23.0,cafe japengo,79.0,Food & Drinks,70.0,143.0
772,2.0,16.0,R-772,32.71837,-117.1578167,13.0,3.0,12.0,symphony bistro,46.0,Only Food,56.0,151.0
773,2.0,16.0,R-773,32.7176631,-117.1585518,13.0,3.0,12.0,city pizzeria,46.0,Only Food,56.0,151.0
774,4.0,18.0,R-774,32.7557791,-117.133467,16.0,16.0,23.0,new maxims palace chinese restaurant,79.0,Food & Drinks,60.0,154.0
775,2.0,16.0,R-775,32.7164606,-117.1730524,13.0,3.0,12.0,carnitas snack shack iii,46.0,Only Food,56.0,149.0
776,4.0,18.0,R-776,32.8933293,-117.2038493,16.0,16.0,23.0,the greek cafe,79.0,Food & Drinks,72.0,146.0
777,4.0,18.0,R-777,32.8423271,-117.2740695,16.0,16.0,23.0,the lot,79.0,Food & Drinks,68.0,137.0
778,2.0,16.0,R-778,32.9386053,-117.2325465,13.0,3.0,12.0,gami sushi and catering,46.0,Only Food,76.0,142.0
779,2.0,16.0,R-779,32.7770607,-117.1177191,13.0,3.0,12.0,mission bell deli,46.0,Only Food,62.0,156.0
780,4.0,18.0,R-780,32.7964711,-117.2547027,16.0,16.0,23.0,menyu ramen taphouse,79.0,Food & Drinks,63.0,140.0
781,2.0,16.0,R-781,32.7630155,-117.1079066,13.0,3.0,12.0,vidajuice llc,46.0,Only Food,60.0,157.0
782,2.0,16.0,R-782,32.9163885,-117.1125004,13.0,3.0,12.0,c s deli,46.0,Only Food,74.0,157.0
783,2.0,16.0,R-783,32.5743999,-117.0667875,13.0,3.0,12.0,raspados la movida,46.0,Only Food,43.0,162.0
784,18.0,4.0,R-784,32.755586,-117.1323806,2.0,20.0,18.0,the barn inc,62.0,Only Drinks,60.0,154.0
785,2.0,16.0,R-785,32.8284352,-117.1256224,13.0,3.0,12.0,taco street,46.0,Only Food,66.0,155.0
786,4.0,18.0,R-786,32.7659127,-117.1557736,16.0,16.0,23.0,yard house #8363,79.0,Food & Drinks,61.0,151.0
787,4.0,18.0,R-787,32.8942319,-117.1230923,16.0,16.0,23.0,rice n roll,79.0,Food & Drinks,72.0,155.0
788,18.0,4.0,R-788,32.7144565,-117.1608767,2.0,20.0,18.0,nara sushi,62.0,Only Drinks,56.0,151.0
789,2.0,16.0,R-789,32.7203577,-117.2325485,13.0,3.0,12.0,seaside pho grill,46.0,Only Food,56.0,142.0
790,4.0,18.0,R-790,32.8249132,-117.1557172,16.0,16.0,23.0,tasty noodle house,79.0,Food & Drinks,66.0,151.0
791,2.0,16.0,R-791,32.7401545,-117.2111952,13.0,3.0,12.0,cecilia's taqueria,46.0,Only Food,58.0,145.0
792,2.0,16.0,R-792,32.7065827,-117.1333253,13.0,3.0,12.0,nyc caramel nuts,46.0,Only Food,55.0,154.0
793,4.0,18.0,R-793,32.7534362,-117.0633904,16.0,16.0,23.0,chinese kitchen,79.0,Food & Drinks,59.0,162.0
794,2.0,16.0,R-794,32.7095619,-117.0636582,13.0,3.0,12.0,paradiso fruit,46.0,Only Food,55.0,162.0
795,2.0,16.0,R-795,32.7909621,-117.0810685,13.0,3.0,12.0,el rodeo restaurant and taco shop,46.0,Only Food,63.0,160.0
796,4.0,18.0,R-796,32.7555731,-117.2162226,16.0,16.0,23.0,flavors of mayura,79.0,Food & Drinks,60.0,144.0
797,2.0,16.0,R-797,32.6980571,-117.1396022,13.0,3.0,12.0,sabor a ti cafe,46.0,Only Food,54.0,153.0
798,4.0,18.0,R-798,32.8259313,-117.1394575,16.0,16.0,23.0,flourishing age inc,79.0,Food & Drinks,66.0,153.0
799,2.0,16.0,R-799,32.5585975,-117.0595061,13.0,3.0,12.0,carls jr 197,46.0,Only Food,42.0,163.0
800,2.0,16.0,R-800,32.8310804,-117.127644,13.0,3.0,12.0,carl's jr #288,46.0,Only Food,67.0,155.0
801,2.0,16.0,R-801,32.5826914,-117.0330055,13.0,3.0,12.0,carl's jr 652,46.0,Only Food,44.0,166.0
802,4.0,18.0,R-802,32.7484619,-117.2047972,16.0,16.0,23.0,carl's jr #332,79.0,Food & Drinks,59.0,146.0
803,4.0,18.0,R-803,32.7652211,-117.1978527,16.0,16.0,23.0,carl's jr #405,79.0,Food & Drinks,61.0,146.0
804,2.0,16.0,R-804,32.8032299,-117.0072976,13.0,3.0,12.0,carl's jr #423,46.0,Only Food,64.0,169.0
805,2.0,16.0,R-805,32.8928118,-117.1186072,13.0,3.0,12.0,carl's jr 147,46.0,Only Food,72.0,156.0
806,4.0,18.0,R-806,32.7710702,-117.1543968,16.0,16.0,23.0,carl's jr #412,79.0,Food & Drinks,61.0,152.0
807,2.0,16.0,R-807,32.7498972,-117.0705478,13.0,3.0,12.0,carl's jr #613,46.0,Only Food,59.0,162.0
808,2.0,16.0,R-808,32.7925806,-117.0979953,13.0,3.0,12.0,carl's jr 157,46.0,Only Food,63.0,158.0
809,4.0,18.0,R-809,32.8133373,-117.1522623,16.0,16.0,23.0,carl's jr #491,79.0,Food & Drinks,65.0,152.0
810,2.0,16.0,R-810,32.9029758,-117.1153007,13.0,3.0,12.0,carl's jr 267,46.0,Only Food,73.0,156.0
811,2.0,16.0,R-811,32.7557527,-117.1299305,13.0,3.0,12.0,carl's jr #168,46.0,Only Food,60.0,155.0
812,4.0,18.0,R-812,32.8330771,-117.1589398,16.0,16.0,23.0,carl's jr #610,79.0,Food & Drinks,67.0,151.0
813,2.0,16.0,R-813,32.7938226,-117.1933148,13.0,3.0,12.0,carl's jr #331,46.0,Only Food,63.0,147.0
814,2.0,16.0,R-814,32.927238,-117.1238296,13.0,3.0,12.0,lumpia city,46.0,Only Food,75.0,155.0
815,2.0,16.0,R-815,32.9141151,-117.1442941,13.0,3.0,12.0,chick-fil-a at mira mesa,46.0,Only Food,74.0,153.0
816,2.0,16.0,R-816,32.9636721,-117.1508266,13.0,3.0,12.0,cotija taco shop,46.0,Only Food,79.0,152.0
817,2.0,16.0,R-817,32.8202321,-116.9231466,13.0,3.0,12.0,taco picasso llc,46.0,Only Food,66.0,179.0
818,2.0,16.0,R-818,32.8536817,-117.2541131,13.0,3.0,12.0,galaxy taco,46.0,Only Food,69.0,140.0
819,18.0,4.0,R-819,32.9070368,-117.1723359,2.0,20.0,18.0,urbane cafe,62.0,Only Drinks,74.0,149.0
820,18.0,4.0,R-820,32.8197436,-117.1548563,2.0,20.0,18.0,chon ju jip,62.0,Only Drinks,66.0,152.0
821,2.0,16.0,R-821,32.959656,-117.201469,13.0,3.0,12.0,culinart,46.0,Only Food,78.0,146.0
822,2.0,16.0,R-822,32.7124428,-117.1568849,13.0,3.0,12.0,tokyo deli usa holdings inc,46.0,Only Food,56.0,151.0
823,2.0,16.0,R-823,32.6692295,-117.0704382,13.0,3.0,12.0,doan's,46.0,Only Food,52.0,162.0
824,4.0,18.0,R-824,32.9810598,-117.249167,16.0,16.0,23.0,cucina enoteca del mar,79.0,Food & Drinks,80.0,140.0
825,2.0,16.0,R-825,32.762642,-117.130412,13.0,3.0,12.0,blackmarket bakery sd,46.0,Only Food,60.0,154.0
826,4.0,18.0,R-826,32.7486959,-117.1297798,16.0,16.0,23.0,lucha libre gourmet taco shop 2,79.0,Food & Drinks,59.0,155.0
827,4.0,18.0,R-827,32.7132427,-117.1589615,16.0,16.0,23.0,crazy goose bar & lounge,79.0,Food & Drinks,56.0,151.0
828,2.0,16.0,R-828,32.7634904,-117.1159278,13.0,3.0,12.0,dos palmas cafe,46.0,Only Food,60.0,156.0
829,18.0,4.0,R-829,32.961671,-117.189898,2.0,20.0,18.0,starbucks #24716,62.0,Only Drinks,79.0,147.0
830,2.0,16.0,R-830,32.8712569,-117.2097355,13.0,3.0,12.0,lemonade,46.0,Only Food,70.0,145.0
831,2.0,16.0,R-831,32.7493307,-117.1606348,13.0,3.0,12.0,lemonade,46.0,Only Food,59.0,151.0
832,2.0,16.0,R-832,32.8789964,-117.1688463,13.0,3.0,12.0,taste of lebanon new,46.0,Only Food,71.0,150.0
833,2.0,16.0,R-833,32.7288483,-117.1636856,13.0,3.0,12.0,papas & tacos mexican food,46.0,Only Food,57.0,150.0
834,2.0,16.0,R-834,32.8334123,-117.1494665,13.0,3.0,12.0,dumpling hut,46.0,Only Food,67.0,152.0
835,4.0,18.0,R-835,32.7850751,-117.111624,16.0,16.0,23.0,village cafe,79.0,Food & Drinks,62.0,157.0
836,4.0,18.0,R-836,32.9019353,-117.2255815,16.0,16.0,23.0,almaz restaurant,79.0,Food & Drinks,73.0,143.0
837,4.0,18.0,R-837,32.7109225,-117.1604224,16.0,16.0,23.0,the grand,79.0,Food & Drinks,56.0,151.0
838,2.0,16.0,R-838,32.7555221,-117.1074782,13.0,3.0,12.0,rolbertos taco shop,46.0,Only Food,60.0,157.0
839,4.0,18.0,R-839,32.7247484,-117.1699327,16.0,16.0,23.0,cafe gratitude san diego llc,79.0,Food & Drinks,57.0,150.0
840,4.0,18.0,R-840,32.9208011,-117.2144504,16.0,16.0,23.0,porkyland,79.0,Food & Drinks,75.0,144.0
841,4.0,18.0,R-841,32.7161003,-117.0263377,16.0,16.0,23.0,mangos grill,79.0,Food & Drinks,56.0,167.0
842,2.0,16.0,R-842,32.6725858,-117.1099456,13.0,3.0,12.0,i scream u scream,46.0,Only Food,52.0,157.0
843,2.0,16.0,R-843,32.76477,-117.1965909,13.0,3.0,12.0,pita pit,46.0,Only Food,60.0,147.0
844,2.0,16.0,R-844,32.5438314,-117.0408468,13.0,3.0,12.0,wetzel s pretzels,46.0,Only Food,40.0,165.0
845,2.0,16.0,R-845,32.907396,-117.2402384,13.0,3.0,12.0,chefs cafe,46.0,Only Food,74.0,141.0
846,2.0,16.0,R-846,32.69564,-117.130665,13.0,3.0,12.0,el sazon de mama,46.0,Only Food,54.0,154.0
847,4.0,18.0,R-847,32.8196892,-117.1500557,16.0,16.0,23.0,nishiki ramen,79.0,Food & Drinks,66.0,152.0
848,2.0,16.0,R-848,32.5604424,-117.0629172,13.0,3.0,12.0,burger king 5724,46.0,Only Food,42.0,163.0
849,2.0,16.0,R-849,32.7499619,-117.1061781,13.0,3.0,12.0,burger king 4331,46.0,Only Food,59.0,157.0
850,2.0,16.0,R-850,32.5832196,-117.0608522,13.0,3.0,12.0,la chula pizza,46.0,Only Food,44.0,163.0
851,2.0,16.0,R-851,32.7593463,-117.1423382,13.0,3.0,12.0,mystic mocha llc,46.0,Only Food,60.0,153.0
852,2.0,16.0,R-852,32.795264,-117.256025,13.0,3.0,12.0,pirate sno balls / pirate nola's sno balls,46.0,Only Food,63.0,139.0
853,2.0,16.0,R-853,32.7096608,-117.1234768,13.0,3.0,12.0,mr joeys taco shop,46.0,Only Food,55.0,155.0
854,18.0,4.0,R-854,32.7722384,-117.2019272,2.0,20.0,18.0,the clutch bar,62.0,Only Drinks,61.0,146.0
855,4.0,18.0,R-855,32.7616842,-117.0645839,16.0,16.0,23.0,top 10 oriental restaurant,79.0,Food & Drinks,60.0,162.0
856,4.0,18.0,R-856,32.8678464,-117.2061498,16.0,16.0,23.0,sl hawaii inc,79.0,Food & Drinks,70.0,145.0
857,2.0,16.0,R-857,32.7306842,-117.2243853,13.0,3.0,12.0,wienerschnitzel #032,46.0,Only Food,57.0,143.0
858,18.0,4.0,R-858,32.7756418,-117.145566,2.0,20.0,18.0,ka prao thai cuisine,62.0,Only Drinks,61.0,153.0
859,4.0,18.0,R-859,32.7639803,-117.0618343,16.0,16.0,23.0,waba grill el cajon,79.0,Food & Drinks,60.0,163.0
860,4.0,18.0,R-860,32.808497,-117.1163998,16.0,16.0,23.0,gourmet express cafe,79.0,Food & Drinks,64.0,156.0
861,18.0,4.0,R-861,32.7967676,-117.2559636,2.0,20.0,18.0,baked bear llc the,62.0,Only Drinks,63.0,139.0
862,2.0,16.0,R-862,32.8243043,-117.2271652,13.0,3.0,12.0,salt and lime sd,46.0,Only Food,66.0,143.0
863,18.0,4.0,R-863,32.7354677,-117.2160104,2.0,20.0,18.0,fig tree liberty inc,62.0,Only Drinks,58.0,144.0
864,4.0,18.0,R-864,32.7202783,-117.1591211,16.0,16.0,23.0,cocina 35,79.0,Food & Drinks,56.0,151.0
865,2.0,16.0,R-865,32.7276235,-116.9635029,13.0,3.0,12.0,tacowaco,46.0,Only Food,57.0,174.0
866,2.0,16.0,R-866,32.5770193,-117.0942371,13.0,3.0,12.0,yogurt heaven ii,46.0,Only Food,43.0,159.0
867,18.0,4.0,R-867,32.7000948,-117.1446204,2.0,20.0,18.0,iron fist brewing company,62.0,Only Drinks,55.0,153.0
868,2.0,16.0,R-868,33.0223697,-117.1153885,13.0,3.0,12.0,jiffy joe coffee,46.0,Only Food,84.0,156.0
869,18.0,4.0,R-869,32.8143583,-117.2695851,2.0,20.0,18.0,lj crafted wines,62.0,Only Drinks,65.0,138.0
870,2.0,16.0,R-870,32.6692295,-117.0704382,13.0,3.0,12.0,tang ice cream,46.0,Only Food,52.0,162.0
871,18.0,4.0,R-871,32.7102629,-117.1598356,2.0,20.0,18.0,indochine concept llc,62.0,Only Drinks,55.0,151.0
872,2.0,16.0,R-872,32.9811156,-117.0818084,13.0,3.0,12.0,the baked bear,46.0,Only Food,80.0,160.0
873,4.0,18.0,R-873,32.7486934,-117.1317972,16.0,16.0,23.0,the barbecue pit,79.0,Food & Drinks,59.0,154.0
874,18.0,4.0,R-874,32.8789964,-117.1688463,2.0,20.0,18.0,pauly's pizza joint inc,62.0,Only Drinks,71.0,150.0
875,4.0,18.0,R-875,32.8953526,-117.1322524,16.0,16.0,23.0,seaside buffet corp,79.0,Food & Drinks,72.0,154.0
876,2.0,16.0,R-876,32.6961627,-117.1320192,13.0,3.0,12.0,jack in the box,46.0,Only Food,54.0,154.0
877,18.0,4.0,R-877,32.835444,-117.1892311,2.0,20.0,18.0,mongolian hot pot,62.0,Only Drinks,67.0,147.0
878,4.0,18.0,R-878,32.7707849,-117.15917,16.0,16.0,23.0,wood ranch bbq and grill,79.0,Food & Drinks,61.0,151.0
879,2.0,16.0,R-879,32.9030189,-117.099923,13.0,3.0,12.0,zpizza,46.0,Only Food,73.0,158.0
880,2.0,16.0,R-880,32.7165257,-117.1571488,13.0,3.0,12.0,samba brazilian cuisine,46.0,Only Food,56.0,151.0
881,4.0,18.0,R-881,32.8732735,-117.2175596,16.0,16.0,23.0,micheline's pita house,79.0,Food & Drinks,70.0,144.0
882,4.0,18.0,R-882,32.716509,-117.1608185,16.0,16.0,23.0,the local,79.0,Food & Drinks,56.0,151.0
883,18.0,4.0,R-883,32.7253139,-117.1686635,2.0,20.0,18.0,bolt brewery,62.0,Only Drinks,57.0,150.0
884,2.0,16.0,R-884,32.9294285,-117.1406424,13.0,3.0,12.0,delish dogs llc,46.0,Only Food,76.0,153.0
885,2.0,16.0,R-885,32.8305548,-117.1528158,13.0,3.0,12.0,tea group llc,46.0,Only Food,67.0,152.0
886,18.0,4.0,R-886,32.8335694,-117.1368314,2.0,20.0,18.0,cafe brio,62.0,Only Drinks,67.0,154.0
887,2.0,16.0,R-887,32.7868976,-117.1706254,13.0,3.0,12.0,thai papaya by sab-e-lee,46.0,Only Food,63.0,150.0
888,4.0,18.0,R-888,32.7159428,-117.1553737,16.0,16.0,23.0,a s pizza & grill,79.0,Food & Drinks,56.0,151.0
889,4.0,18.0,R-889,32.8732735,-117.2175596,16.0,16.0,23.0,un mundo mexican grill,79.0,Food & Drinks,70.0,144.0
890,2.0,16.0,R-890,32.7497169,-117.0882179,13.0,3.0,12.0,taco fiesta #6,46.0,Only Food,59.0,159.0
891,18.0,4.0,R-891,32.806169,-117.219721,2.0,20.0,18.0,nite owl cocktail lounge,62.0,Only Drinks,64.0,144.0
892,4.0,18.0,R-892,32.7516916,-117.1938581,16.0,16.0,23.0,montesanto restaurant,79.0,Food & Drinks,59.0,147.0
893,4.0,18.0,R-893,32.895344,-117.124134,16.0,16.0,23.0,biriyani factory,79.0,Food & Drinks,72.0,155.0
894,2.0,16.0,R-894,33.0211987,-117.0735283,13.0,3.0,12.0,peet's coffee & tea,46.0,Only Food,84.0,161.0
895,2.0,16.0,R-895,32.8782951,-117.222888,13.0,3.0,12.0,come on in cafe,46.0,Only Food,71.0,143.0
896,4.0,18.0,R-896,32.7660697,-117.1978813,16.0,16.0,23.0,tio leos mexican restaurant,79.0,Food & Drinks,61.0,146.0
897,4.0,18.0,R-897,32.8339262,-117.1739753,16.0,16.0,23.0,twisted sushi,79.0,Food & Drinks,67.0,149.0
898,18.0,4.0,R-898,32.7553041,-117.2122211,2.0,20.0,18.0,tassbros inc,62.0,Only Drinks,60.0,145.0
899,4.0,18.0,R-899,32.7242904,-117.1683504,16.0,16.0,23.0,civico 1845,79.0,Food & Drinks,57.0,150.0
900,2.0,16.0,R-900,32.7065254,-117.1363723,13.0,3.0,12.0,brissa,46.0,Only Food,55.0,154.0
901,4.0,18.0,R-901,32.9147132,-117.1467215,16.0,16.0,23.0,original sushi hut,79.0,Food & Drinks,74.0,153.0
902,18.0,4.0,R-902,32.8197436,-117.1548563,2.0,20.0,18.0,chon ju jip,62.0,Only Drinks,66.0,152.0
903,2.0,16.0,R-903,32.7832965,-117.2524988,13.0,3.0,12.0,juice wave llc,46.0,Only Food,62.0,140.0
904,4.0,18.0,R-904,32.9508705,-117.2459994,16.0,16.0,23.0,broken yolk cafe,79.0,Food & Drinks,78.0,141.0
905,4.0,18.0,R-905,32.848207,-117.2745203,16.0,16.0,23.0,little korea,79.0,Food & Drinks,68.0,137.0
906,2.0,16.0,R-906,32.722149,-117.1596224,13.0,3.0,12.0,mangos fruit bar,46.0,Only Food,57.0,151.0
907,2.0,16.0,R-907,32.8004108,-117.2384604,13.0,3.0,12.0,zgara greek grill,46.0,Only Food,64.0,142.0
908,2.0,16.0,R-908,32.564057,-117.087009,13.0,3.0,12.0,bayons ice cream,46.0,Only Food,42.0,160.0
909,2.0,16.0,R-909,33.071525,-117.30527,13.0,3.0,12.0,bossa restaurant,46.0,Only Food,89.0,134.0
910,4.0,18.0,R-910,32.8011793,-117.2330946,16.0,16.0,23.0,mariscos el trebol,79.0,Food & Drinks,64.0,142.0
911,2.0,16.0,R-911,32.8314173,-117.1550676,13.0,3.0,12.0,cdd tofu grill,46.0,Only Food,67.0,152.0
912,18.0,4.0,R-912,32.761323,-117.1460199,2.0,20.0,18.0,red house pizza boutique,62.0,Only Drinks,60.0,153.0
913,18.0,4.0,R-913,32.7842204,-117.1198895,2.0,20.0,18.0,san diego sportservice inc,62.0,Only Drinks,62.0,156.0
914,2.0,16.0,R-914,32.7513954,-117.2259932,13.0,3.0,12.0,weiner buddies,46.0,Only Food,59.0,143.0
915,2.0,16.0,R-915,32.7502359,-117.1712012,13.0,3.0,12.0,mission hills coffee company inc,46.0,Only Food,59.0,150.0
916,2.0,16.0,R-916,32.7110619,-117.0948143,13.0,3.0,12.0,soul cal pit stop,46.0,Only Food,56.0,159.0
917,4.0,18.0,R-917,32.8712569,-117.2097355,16.0,16.0,23.0,pholicious,79.0,Food & Drinks,70.0,145.0
918,2.0,16.0,R-918,32.9806985,-117.0788484,13.0,3.0,12.0,which wich superior sandwiches of carmel mountian,46.0,Only Food,80.0,161.0
919,4.0,18.0,R-919,32.7480947,-117.151939,16.0,16.0,23.0,tabletop commons,79.0,Food & Drinks,59.0,152.0
920,4.0,18.0,R-920,32.9154303,-117.1208559,16.0,16.0,23.0,cold stone creamery,79.0,Food & Drinks,74.0,156.0
921,4.0,18.0,R-921,32.72065,-117.1693471,16.0,16.0,23.0,bracero,79.0,Food & Drinks,56.0,150.0
922,4.0,18.0,R-922,32.7112422,-117.1594938,16.0,16.0,23.0,blush ice bar,79.0,Food & Drinks,56.0,151.0
923,2.0,16.0,R-923,32.961671,-117.189898,13.0,3.0,12.0,starbucks coffee #24716,46.0,Only Food,79.0,147.0
924,4.0,18.0,R-924,32.7092092,-117.1589065,16.0,16.0,23.0,water grill san diego,79.0,Food & Drinks,55.0,151.0
925,2.0,16.0,R-925,32.5438314,-117.0408468,13.0,3.0,12.0,tokyosan,46.0,Only Food,40.0,165.0
926,2.0,16.0,R-926,32.8141393,-117.1539653,13.0,3.0,12.0,cafe hue,46.0,Only Food,65.0,152.0
927,2.0,16.0,R-927,32.577871,-117.094489,13.0,3.0,12.0,liu chinese restaurant,46.0,Only Food,43.0,159.0
928,2.0,16.0,R-928,32.9189862,-117.1241305,13.0,3.0,12.0,donuts stop,46.0,Only Food,75.0,155.0
929,2.0,16.0,R-929,32.7549122,-117.1329157,13.0,3.0,12.0,sonic,46.0,Only Food,60.0,154.0
930,4.0,18.0,R-930,32.8239052,-117.1547359,16.0,16.0,23.0,kula revolving sushi bar,79.0,Food & Drinks,66.0,152.0
931,2.0,16.0,R-931,32.8311487,-117.2766987,13.0,3.0,12.0,la clochette du coin,46.0,Only Food,67.0,137.0
932,2.0,16.0,R-932,32.6928313,-117.1324429,13.0,3.0,12.0,los tapatios mexican food,46.0,Only Food,54.0,154.0
933,2.0,16.0,R-933,32.7212338,-117.1667914,13.0,3.0,12.0,zensational coffee and tea,46.0,Only Food,56.0,150.0
934,18.0,4.0,R-934,32.8017336,-117.1401655,2.0,20.0,18.0,michael w raile channel 2 sports bar,62.0,Only Drinks,64.0,153.0
935,2.0,16.0,R-935,32.9512512,-117.2461303,13.0,3.0,12.0,jersey mikes subs,46.0,Only Food,78.0,141.0
936,18.0,4.0,R-936,32.808499,-116.9588781,2.0,20.0,18.0,finest thai,62.0,Only Drinks,64.0,175.0
937,2.0,16.0,R-937,32.7211244,-117.1307237,13.0,3.0,12.0,sacred juice co,46.0,Only Food,56.0,154.0
938,2.0,16.0,R-938,32.7494215,-117.0995382,13.0,3.0,12.0,chipotle mexican grill #2370,46.0,Only Food,59.0,158.0
939,18.0,4.0,R-939,32.9356943,-117.099761,2.0,20.0,18.0,luna grill,62.0,Only Drinks,76.0,158.0
940,4.0,18.0,R-940,32.8729501,-117.2121703,16.0,16.0,23.0,eureka! utc,79.0,Food & Drinks,70.0,145.0
941,2.0,16.0,R-941,32.7913197,-117.2544418,13.0,3.0,12.0,oceans pizzeria & bakery,46.0,Only Food,63.0,140.0
942,2.0,16.0,R-942,32.8678464,-117.2061498,13.0,3.0,12.0,which wich superior sandwichs,46.0,Only Food,70.0,145.0
943,18.0,4.0,R-943,32.7119183,-117.1543209,2.0,20.0,18.0,quartyard,62.0,Only Drinks,56.0,152.0
944,4.0,18.0,R-944,32.7728091,-117.0710434,16.0,16.0,23.0,the den by dennys,79.0,Food & Drinks,61.0,162.0
945,2.0,16.0,R-945,32.7475488,-117.1248415,13.0,3.0,12.0,panchita s kitchen bakery,46.0,Only Food,59.0,155.0
946,2.0,16.0,R-946,32.5528616,-116.9383455,13.0,3.0,12.0,otay pizza & mexican grill inc,46.0,Only Food,41.0,177.0
947,4.0,18.0,R-947,32.9334917,-117.253534,16.0,16.0,23.0,seasalt del mar,79.0,Food & Drinks,76.0,140.0
948,4.0,18.0,R-948,33.00665,-117.1054145,16.0,16.0,23.0,trinh food company inc,79.0,Food & Drinks,83.0,157.0
949,4.0,18.0,R-949,32.7481795,-117.1312996,16.0,16.0,23.0,sd observatory west coast tavern,79.0,Food & Drinks,59.0,154.0
950,2.0,16.0,R-950,32.7301205,-117.1597991,13.0,3.0,12.0,mystery cafe dinner theater,46.0,Only Food,57.0,151.0
951,2.0,16.0,R-951,32.9834936,-117.0765491,13.0,3.0,12.0,fish district,46.0,Only Food,81.0,161.0
952,2.0,16.0,R-952,32.7044599,-117.1384257,13.0,3.0,12.0,algo bien tortas y botanas,46.0,Only Food,55.0,153.0
953,4.0,18.0,R-953,32.8732735,-117.2175596,16.0,16.0,23.0,un mundo,79.0,Food & Drinks,70.0,144.0
954,2.0,16.0,R-954,32.741926,-117.1302675,13.0,3.0,12.0,amorcito corazon,46.0,Only Food,58.0,154.0
955,2.0,16.0,R-955,32.754527,-117.0565132,13.0,3.0,12.0,wei wei asian express,46.0,Only Food,60.0,163.0
956,2.0,16.0,R-956,32.77487,-117.1559379,13.0,3.0,12.0,subway #4462,46.0,Only Food,61.0,151.0
957,2.0,16.0,R-957,32.771059,-117.142033,13.0,3.0,12.0,subway #27500,46.0,Only Food,61.0,153.0
958,2.0,16.0,R-958,32.7830988,-117.236758,13.0,3.0,12.0,cafe by the bay,46.0,Only Food,62.0,142.0
959,2.0,16.0,R-959,32.7088714,-117.1542444,13.0,3.0,12.0,kassiannas the living room,46.0,Only Food,55.0,152.0
960,4.0,18.0,R-960,32.9189862,-117.1241305,16.0,16.0,23.0,tim ky noodle,79.0,Food & Drinks,75.0,155.0
961,2.0,16.0,R-961,32.8789964,-117.1688463,13.0,3.0,12.0,donatos taco shop,46.0,Only Food,71.0,150.0
962,2.0,16.0,R-962,32.8476345,-117.2750196,13.0,3.0,12.0,smashburger #1487,46.0,Only Food,68.0,137.0
963,2.0,16.0,R-963,32.7161675,-117.1660509,13.0,3.0,12.0,cafe figaro,46.0,Only Food,56.0,150.0
964,4.0,18.0,R-964,32.8322319,-117.1470856,16.0,16.0,23.0,szechuan taste,79.0,Food & Drinks,67.0,152.0
965,2.0,16.0,R-965,32.7537835,-117.2118619,13.0,3.0,12.0,levy restaurants at valley view casino center,46.0,Only Food,59.0,145.0
966,2.0,16.0,R-966,32.7102641,-117.1562711,13.0,3.0,12.0,half door brewing co,46.0,Only Food,55.0,151.0
